id,name,displayName,state,population,area,lat,long
02261,Valdez-Cordova,"Valdez-Cordova County, AK",02,9202,34239.88,-15.707827062813598,-10.343262810086836
02158,Kusilvak,"Kusilvak County, CA",02,8314,17081.433,-18.751015290079515,-10.077829051748006
02275,Wrangell,"Wrangell County, AK",02,2502,2541.483,-13.049034693764431,-11.52061015570261
02290,Yukon-Koyukuk,"Yukon-Koyukuk County, AK",02,5230,145504.789,-16.91015564069399,-9.023965976216312
04003,Cochise,"Cochise County, AZ",04,125922,6165.69,-11.11926701971863,-6.027626407790981
04009,Graham,"Graham County, AZ",04,38837,4622.597,-11.078448322483762,-4.96821233366399
04012,La Paz,"La Paz County, AZ",04,21108,4499.629,-14.295816233778918,-3.6148295435241677
04015,Mohave,"Mohave County, AZ",04,212181,13311.084,-13.748142973769712,-1.6994249996296689
04023,Santa Cruz,"Santa Cruz County, AZ",04,46498,1236.916,-12.089776672227405,-6.238214054736814
05005,Baxter,"Baxter County, AR",05,41932,554.283,3.3888184464497737,-2.3813833462134344
05023,Cleburne,"Cleburne County, AR",05,24919,553.692,3.667443944399337,-3.124736499846314
05025,Cleveland,"Cleveland County, AR",05,7956,597.783,3.605726900323176,-4.77842802229013
05027,Columbia,"Columbia County, AR",05,23457,766.053,2.7676939208867597,-5.493952563031434
05037,Cross,"Cross County, AR",05,16419,616.381,4.6914590554979485,-3.320420164649001
05043,Drew,"Drew County, AR",05,18219,828.356,4.003156653822133,-5.071469439551778
05051,Garland,"Garland County, AR",05,99386,677.781,2.7908483753715663,-4.124565649592225
05059,Hot Spring,"Hot Spring County, AR",05,33771,615.202,2.966281696408776,-4.379792274300599
05067,Jackson,"Jackson County, AR",05,16719,633.938,4.318413363832502,-3.034578148398466
05081,Little River,"Little River County, AR",05,12259,532.253,1.9227978306163704,-5.026039951997923
05087,Madison,"Madison County, AR",05,16576,834.255,2.2870410452809726,-2.6938554554102985
05097,Montgomery,"Montgomery County, AR",05,8986,779.88,2.3758982897197254,-4.1747641131750735
05109,Pike,"Pike County, AR",05,10718,600.618,2.3879528615247683,-4.551765179616166
05111,Poinsett,"Poinsett County, AR",05,23528,758.389,4.763559681041291,-3.0344447786994757
05123,St. Francis,"St. Francis County, AR",05,24994,634.771,4.726243129571829,-3.594296713684322
05129,Searcy,"Searcy County, AR",05,7881,666.095,3.112260092566035,-2.7703203628451356
05135,Sharp,"Sharp County, AR",05,17442,604.439,4.077827743034529,-2.478365898496474
05139,Union,"Union County, AR",05,38682,1039.214,3.293203400851557,-5.519630911812058
08053,Hinsdale,"Hinsdale County, CO",08,820,1117.251,-8.355191299794889,-0.3637421805226293
08061,Kiowa,"Kiowa County, CO",08,1406,1767.767,-4.7608737999889765,-0.08490451074870536
08073,Lincoln,"Lincoln County, CO",08,5701,2577.626,-5.315218267458939,0.5172615673973413
08079,Mineral,"Mineral County, CO",08,769,875.666,-8.080428097380942,-0.5514428046014443
08085,Montrose,"Montrose County, CO",08,42758,2240.695,-9.031925141423903,0.3127432924624204
08095,Phillips,"Phillips County, CO",08,4265,687.928,-4.318441699019492,2.0699044829436852
08101,Pueblo,"Pueblo County, CO",08,168424,2386.104,-6.15426456041823,-0.23622096308681365
08105,Rio Grande,"Rio Grande County, CO",08,11267,911.958,-7.668461371189247,-0.6855472236496939
08115,Sedgwick,"Sedgwick County, CO",08,2248,548.041,-4.29545887653458,2.3531933170276815
08121,Washington,"Washington County, CO",08,4908,2518.031,-5.000108488832345,1.488165790795825
09013,Tolland,"Tolland County, CT",09,150721,410.214,17.78130276418414,5.339601462915506
09015,Windham,"Windham County, CT",09,116782,512.91,18.03724378919823,5.380253465886338
12005,Bay,"Bay County, FL",12,174705,758.459,9.395926060398727,-7.983254120093946
12013,Calhoun,"Calhoun County, FL",12,14105,567.334,9.74327862337468,-7.804281197283279
12019,Clay,"Clay County, FL",12,219252,604.36,12.655629076436535,-7.847234247030013
12033,Escambia,"Escambia County, FL",12,318316,656.461,7.863748131936296,-7.733953593280927
12041,Gilchrist,"Gilchrist County, FL",12,18582,349.677,11.88349158143734,-8.21547013959649
12049,Hardee,"Hardee County, FL",12,26937,637.783,13.066254564515196,-10.267768371156318
12055,Highlands,"Highlands County, FL",12,106221,1016.615,13.502052851100126,-10.350574632187277
12067,Lafayette,"Lafayette County, FL",12,8422,543.411,11.521166695726968,-8.004440789202956
12077,Liberty,"Liberty County, FL",12,8354,835.562,10.031325856383502,-7.935958209564608
12081,Manatee,"Manatee County, FL",12,403253,742.931,12.625325244451101,-10.352941060645145
12083,Marion,"Marion County, FL",12,365579,1584.546,12.598503960422173,-8.628860494170064
12087,Monroe,"Monroe County, FL",12,74228,983.282,14.07312043857421,-12.054759436919339
12099,Palm Beach,"Palm Beach County, FL",12,1496770,1969.763,14.386840025046132,-10.8988541148293
12107,Putnam,"Putnam County, FL",12,74521,727.622,12.808932555113968,-8.199136792533027
12123,Taylor,"Taylor County, FL",12,21569,1043.305,11.152091738459415,-7.992190164717743
12133,Washington,"Washington County, FL",12,25473,582.803,9.32026088249738,-7.646149752949356
13009,Baldwin,"Baldwin County, GA",13,44890,257.844,11.047572996163177,-4.963641383673085
13019,Berrien,"Berrien County, GA",13,19397,451.897,11.30652381905605,-6.739003603183332
13035,Butts,"Butts County, GA",13,24936,184.393,10.436696242644702,-4.823529658427961
13043,Candler,"Candler County, GA",13,10803,243.044,12.116338588866578,-5.487837790878744
13047,Catoosa,"Catoosa County, GA",13,67580,162.159,9.27693177674033,-3.329286830908724
13055,Chattooga,"Chattooga County, GA",13,24789,313.338,9.157961524786714,-3.7755345473021777
13071,Colquitt,"Colquitt County, GA",13,45600,544.153,10.862643941963716,-6.885268561666669
13075,Cook,"Cook County, GA",13,17270,227.162,11.153008644196373,-6.881754882520953
13081,Crisp,"Crisp County, GA",13,22372,272.583,10.769015245754098,-6.158546647226422
13093,Dooly,"Dooly County, GA",13,13390,391.94,10.713237841250463,-5.929587012330184
13101,Echols,"Echols County, GA",13,4006,414.894,11.668932725933102,-7.258702703261276
13109,Evans,"Evans County, GA",13,10654,182.853,12.307995827758969,-5.708999369513089
13119,Franklin,"Franklin County, GA",13,23349,261.497,10.889248829422193,-3.6622571266931505
05141,Van Buren,"Van Buren County, AR",05,16545,708.143,3.2717215169694707,-3.0978540191745894
05143,Washington,"Washington County, AR",05,239187,941.966,1.8936870189366446,-2.7351347343448005
05147,Woodruff,"Woodruff County, AR",05,6320,586.791,4.317649122550566,-3.4511416765992964
06011,Colusa,"Colusa County, CA",06,21547,1150.731,-19.42751841626073,3.241879201470986
06021,Glenn,"Glenn County, CA",06,28393,1313.947,-19.424311533352913,3.6822497887816077
06031,Kings,"Kings County, CA",06,152940,1389.42,-18.408788737481093,-0.2747333161069314
06043,Mariposa,"Mariposa County, CA",06,17203,1448.816,-18.105067070522196,1.2128833260231044
06049,Modoc,"Modoc County, CA",06,8841,3917.77,-17.681636242175625,5.279920860337803
06067,Sacramento,"Sacramento County, CA",06,1552058,964.644,-18.960685727562176,2.3503306984031744
06071,San Bernardino,"San Bernardino County, CA",06,2180085,20056.938,-15.83490144743989,-2.158010035530077
06083,Santa Barbara,"Santa Barbara County, CA",06,446499,2735.085,-18.974338066285206,-1.7534459370035895
06089,Shasta,"Shasta County, CA",06,180080,3775.402,-18.847991977851198,4.737996367940099
06107,Tulare,"Tulare County, CA",06,466195,4824.215,-17.585588238168906,-0.32952316540733817
08001,Adams,"Adams County, CO",08,517421,1167.653,-5.86997016835655,1.4625410644646724
08003,Alamosa,"Alamosa County, CO",08,16233,722.643,-7.205454358625509,-0.7445010759410777
08011,Bent,"Bent County, CO",08,5577,1512.861,-5.053170901799763,-0.5484999383853005
08013,Boulder,"Boulder County, CO",08,326196,726.289,-6.618810107766094,1.752033959112502
08014,Broomfield,"Broomfield County, CO",08,70465,33.034,-6.393878848467384,1.596414141555344
08025,Crowley,"Crowley County, CO",08,6061,787.421,-5.57683937848195,-0.13088301750593967
08039,Elbert,"Elbert County, CO",08,26729,1850.847,-5.765723381645038,0.8579325051548425
08047,Gilpin,"Gilpin County, CO",08,6243,149.896,-6.7679813788302035,1.5287971609205728
01001,Autauga,"Autauga County, AL",01,55869,594.436,8.295187551153667,-5.823576156160659
01003,Baldwin,"Baldwin County, AL",01,223234,1589.784,7.552303826150909,-7.701923267203393
01007,Bibb,"Bibb County, AL",01,22394,622.582,7.848050329465551,-5.400356444593234
01011,Bullock,"Bullock County, AL",01,10101,622.805,9.116049093914869,-6.175905593111168
01021,Chilton,"Chilton County, AL",01,44428,692.854,8.20148873501205,-5.518063694861213
01031,Coffee,"Coffee County, AL",01,52342,678.972,8.960898811820018,-6.8929991489810485
01037,Coosa,"Coosa County, AL",01,10663,650.926,8.583433362392261,-5.3909161238769086
01045,Dale,"Dale County, AL",01,49172,561.15,9.27624815761482,-6.829665262099333
01055,Etowah,"Etowah County, AL",01,102268,534.991,8.642845398491698,-4.266327232118615
01059,Franklin,"Franklin County, AL",01,31362,633.821,7.128696328535796,-4.009056798440225
01075,Lamar,"Lamar County, AL",01,13805,604.846,6.9772220046572855,-4.691076606189723
01087,Macon,"Macon County, AL",01,18068,608.885,9.103647756904822,-5.8900052878565194
01093,Marion,"Marion County, AL",01,29709,742.292,7.119047569870234,-4.31824010418903
01103,Morgan,"Morgan County, AL",01,119679,579.337,7.934009549818351,-3.9245151691426123
01111,Randolph,"Randolph County, AL",01,22722,580.55,9.19761197926041,-4.965308858038202
01119,Sumter,"Sumter County, AL",01,12427,903.887,6.991511167346557,-5.88653747279115
01131,Wilcox,"Wilcox County, AL",01,10373,888.498,7.790471434736619,-6.418940425333127
02013,Aleutians East,"Aleutians East County, AK",02,3337,6981.943,-18.823341741273158,-12.38849575101684
02050,Bethel,"Bethel County, AK",02,18386,40570.004,-18.56813697845531,-10.605116227830756
02105,Hoonah-Angoon,"Hoonah-Angoon County, AK",02,2148,7524.915,-14.143169352972741,-11.027357754137793
02122,Kenai Peninsula,"Kenai Peninsula County, AK",02,58708,16075.331,-16.67943252920369,-10.72436794705911
02130,Ketchikan Gateway,"Ketchikan Gateway County, AK",02,13901,4858.414,-12.769771099875308,-11.690652779557535
02150,Kodiak Island,"Kodiak Island County, AK",02,12998,6549.579,-17.299500867541976,-11.808340511274201
02164,Lake and Peninsula,"Lake and Peninsula County, AK",02,1592,23652.009,-17.45856030412626,-11.321207467730218
02180,Nome,"Nome County, AK",02,10004,22961.761,-18.88242482017065,-9.23302384564861
02185,North Slope,"North Slope County, AK",02,9832,88695.413,-17.155512244231485,-7.68824754114914
02188,Northwest Arctic,"Northwest Arctic County, AK",02,7621,35572.584,-18.011845761301128,-8.45830171769213
02195,Petersburg,"Petersburg County, AK",02,3266,3281.982,-13.331516129541917,-11.43331149103674
02220,Sitka,"Sitka County, AK",02,8493,2870.339,-13.712238439593811,-11.387383161536517
17069,Hardin,"Hardin County, IL",17,3821,177.528,6.530576404633142,-0.9479221699864463
17079,Jasper,"Jasper County, IL",17,9610,494.51,6.4953670253783296,0.561254457753507
17081,Jefferson,"Jefferson County, IL",17,37684,571.169,5.9578132912740775,-0.20057170617650041
17087,Johnson,"Johnson County, IL",17,12417,343.915,6.054830510987356,-1.0445762305792694
17093,Kendall,"Kendall County, IL",17,128990,320.335,6.0774631473616205,3.1374366507614666
17099,LaSalle,"LaSalle County, IL",17,108669,1135.124,5.757231964798774,2.863137507766449
17103,Lee,"Lee County, IL",17,34096,724.896,5.421190546462323,3.245431218520944
17109,McDonough,"McDonough County, IL",17,29682,589.407,4.475908937419562,1.8834456544975056
17115,Macon,"Macon County, IL",17,104009,580.689,5.812083418914628,1.3675203111003618
17121,Marion,"Marion County, IL",17,37205,572.363,5.935401752535158,0.15155404952662735
17129,Menard,"Menard County, IL",17,12196,314.437,5.163717355585109,1.4920756498573964
17135,Montgomery,"Montgomery County, IL",17,28414,703.687,5.463179266250374,0.7061121597580959
17141,Ogle,"Ogle County, IL",17,50643,758.574,5.385343256298648,3.5415071850306172
17147,Piatt,"Piatt County, IL",17,16344,439.202,6.08125550683097,1.5398564537371986
17155,Putnam,"Putnam County, IL",17,5739,160.161,5.4704020044118495,2.7019274166342844
17159,Richland,"Richland County, IL",17,15513,359.99,6.572909096943609,0.265575615667765
17165,Saline,"Saline County, IL",17,23491,379.819,6.297909683703154,-0.7283326540472218
17171,Scott,"Scott County, IL",17,4951,250.913,4.676853195847842,1.0739521315477156
17175,Stark,"Stark County, IL",17,5342,288.079,5.09674475324838,2.564027681165832
17187,Warren,"Warren County, IL",17,16844,542.405,4.500959607610696,2.280479224701302
17189,Washington,"Washington County, IL",17,13887,562.572,5.576449344395141,-0.17500390825574139
17197,Will,"Will County, IL",17,690743,836.908,6.422930072117258,3.0182848377256977
18001,Adams,"Adams County, IN",18,35777,339.028,8.755521252777433,2.545407418240992
18007,Benton,"Benton County, IN",18,8748,406.418,6.9944558484719135,2.220744612418925
18011,Boone,"Boone County, IN",18,67843,422.913,7.6818773534867,1.7242769039873986
18017,Cass,"Cass County, IN",18,37689,412.155,7.701444654434821,2.446366947174916
18023,Clinton,"Clinton County, IN",18,32399,405.07,7.65108810032641,1.975453908101421
18031,Decatur,"Decatur County, IN",18,26559,372.568,8.494437237213878,1.055448725080491
18035,Delaware,"Delaware County, IN",18,114135,392.124,8.469927741321234,1.9874230810351254
18041,Fayette,"Fayette County, IN",18,23102,215.014,8.701971885206659,1.4167110341636258
18047,Franklin,"Franklin County, IN",18,22758,384.43,8.817419545440524,1.201123997732791
18049,Fulton,"Fulton County, IN",18,19974,368.388,7.733630538505086,2.7388647530671664
18053,Grant,"Grant County, IN",18,65769,414.074,8.244804569709482,2.2546729309989257
18055,Greene,"Greene County, IN",18,31922,542.495,7.406348361743579,0.6686333091502267
18065,Henry,"Henry County, IN",18,47972,391.876,8.503844270487546,1.6900824744907579
18069,Huntington,"Huntington County, IN",18,36520,382.651,8.334643680684833,2.582000748308829
18075,Jay,"Jay County, IN",18,20436,383.905,8.739957775610318,2.231370868171102
18081,Johnson,"Johnson County, IN",18,158167,320.427,8.017851533084434,1.1896888457538157
18085,Kosciusko,"Kosciusko County, IN",18,79456,531.381,8.012220988894162,2.967883255542424
18093,Lawrence,"Lawrence County, IN",18,45370,449.168,7.792759175416585,0.5083442264402125
18095,Madison,"Madison County, IN",18,129569,451.915,8.234753869809705,1.8939463704845756
18101,Martin,"Martin County, IN",18,10255,335.737,7.560359584443402,0.350698918779396
18107,Montgomery,"Montgomery County, IN",18,38338,504.613,7.3621069710907046,1.6820563506015433
18113,Noble,"Noble County, IN",18,47744,410.843,8.323729814172786,3.157711516533167
18117,Orange,"Orange County, IN",18,19646,398.387,7.813760093110915,0.20609530091730183
18127,Porter,"Porter County, IN",18,170389,418.153,7.0963051410796005,3.0941105018690975
18131,Pulaski,"Pulaski County, IN",18,12353,433.649,7.410247637805044,2.700886660011918
18133,Putnam,"Putnam County, IN",18,37576,480.528,7.434812818315222,1.3099639736148425
18139,Rush,"Rush County, IN",18,16581,408.124,8.48647224331677,1.3722663634261896
18145,Shelby,"Shelby County, IN",18,44729,411.147,8.249835731893093,1.2479336969008543
18157,Tippecanoe,"Tippecanoe County, IN",18,195732,499.806,7.327883950218727,2.031716220031287
18159,Tipton,"Tipton County, IN",18,15148,260.541,7.968387285453033,2.017595288797905
18167,Vigo,"Vigo County, IN",18,107038,403.313,7.042880029343365,1.0344351846675293
18177,Wayne,"Wayne County, IN",18,65884,401.74,8.803547771811838,1.6563709899830947
18179,Wells,"Wells County, IN",18,28296,368.087,8.544987639483548,2.5045326588881944
19001,Adair,"Adair County, IA",19,7152,569.271,1.602715123960107,2.661272336047978
19007,Appanoose,"Appanoose County, IA",19,12426,497.292,2.8156091349912105,2.09902599001671
19013,Black Hawk,"Black Hawk County, IA",19,131228,565.769,3.1684517827962964,3.850288264204001
19017,Bremer,"Bremer County, IA",19,25062,435.477,3.14976383917454,4.15558652026548
19021,Buena Vista,"Buena Vista County, IA",19,19620,574.915,1.0835785782130198,4.067076818765428
19027,Carroll,"Carroll County, IA",19,20165,569.437,1.3042325551347995,3.3668566866598995
19031,Cedar,"Cedar County, IA",19,18627,579.436,4.065566517607647,3.188706745507992
19035,Cherokee,"Cherokee County, IA",19,11235,576.906,0.7383236215752875,4.064745672379578
19039,Clarke,"Clarke County, IA",19,9395,431.167,2.1208009459649872,2.3676217723459905
13125,Glascock,"Glascock County, GA",13,2971,143.74,11.552724276657758,-4.73342738068069
13127,Glynn,"Glynn County, GA",13,85292,419.753,12.738540688831803,-6.579664256849743
13131,Grady,"Grady County, GA",13,24633,454.527,10.50753860880533,-7.244886635667017
13143,Haralson,"Haralson County, GA",13,29792,282.165,9.345583786678633,-4.442912320800954
13149,Heard,"Heard County, GA",13,11923,296.03,9.470241187525561,-4.9317246041902285
13155,Irwin,"Irwin County, GA",13,9416,354.343,11.222755186959935,-6.4225348116774414
13163,Jefferson,"Jefferson County, GA",13,15362,526.485,11.736476467024469,-4.883941254783242
13171,Lamar,"Lamar County, GA",13,19077,183.5,10.313236625138245,-5.053231164176203
13177,Lee,"Lee County, GA",13,29992,355.784,10.474836456342507,-6.340418260967979
13189,McDuffie,"McDuffie County, GA",13,21312,257.461,11.623316388335464,-4.46521976380506
13199,Meriwether,"Meriwether County, GA",13,21167,501.223,9.863106832957023,-5.14432107416045
13217,Newton,"Newton County, GA",13,111744,272.161,10.491320580084318,-4.546299983705364
13223,Paulding,"Paulding County, GA",13,168667,312.219,9.612487405674058,-4.284991895911845
13227,Pickens,"Pickens County, GA",13,32591,232.057,9.874188480461726,-3.7032002863081344
13233,Polk,"Polk County, GA",13,42613,310.331,9.34098573618552,-4.232786352969724
13243,Randolph,"Randolph County, GA",13,6778,428.236,9.961760173750411,-6.419929096809931
13249,Schley,"Schley County, GA",13,5257,166.906,10.268630824850092,-5.880550556413865
13261,Sumter,"Sumter County, GA",13,29524,482.697,10.394769502252904,-6.088130694910225
13273,Terrell,"Terrell County, GA",13,8531,335.439,10.225861049764882,-6.373427417154533
13277,Tift,"Tift County, GA",13,40644,258.915,11.031660483498294,-6.593412087745291
13285,Troup,"Troup County, GA",13,69922,413.988,9.58375603517875,-5.184048659988076
13295,Walker,"Walker County, GA",13,69761,446.379,9.165215143057518,-3.510543159377763
13307,Webster,"Webster County, GA",13,2607,209.118,10.096862022587624,-6.116844955274443
13311,White,"White County, GA",13,30798,240.686,10.433496969871063,-3.4488051180632757
13315,Wilcox,"Wilcox County, GA",13,8635,377.705,11.044501412714094,-6.072468719300022
15005,Kalawao,"Kalawao County, HI",15,86,11.991,-8.891481766795954,-10.81451628710274
15009,Maui,"Maui County, HI",15,167417,1161.521,-8.594603724159064,-11.129665897552307
16009,Benewah,"Benewah County, ID",16,9298,776.617,-13.532950541074866,10.030327587960018
16019,Bonneville,"Bonneville County, ID",16,119062,1866.077,-10.777430797974205,5.6402609703705515
16025,Camas,"Camas County, ID",16,1106,1074.493,-13.03217425426476,6.127974841760711
16041,Franklin,"Franklin County, ID",16,13876,663.645,-11.120891844336983,4.470630756953111
16045,Gem,"Gem County, ID",16,18112,560.9,-14.03108780779394,6.943369357947153
16049,Idaho,"Idaho County, ID",16,16667,8477.352,-13.018031421488493,8.537494691766218
16057,Latah,"Latah County, ID",16,40108,1075.996,-13.654613294952055,9.653152047027827
16059,Lemhi,"Lemhi County, ID",16,8027,4563.387,-12.134075086569002,7.453678096371195
16067,Minidoka,"Minidoka County, ID",16,21039,757.591,-12.317944646413098,5.368282849357062
16081,Teton,"Teton County, ID",16,12142,449.456,-10.428224647756695,5.959689142769878
17005,Bond,"Bond County, IL",17,16426,380.279,5.520320253704593,0.3619352921746521
17007,Boone,"Boone County, IL",17,53544,280.719,5.7296005137316595,3.8484877436390885
17009,Brown,"Brown County, IL",17,6578,305.607,4.448857764951302,1.3814257641496333
17019,Champaign,"Champaign County, IL",17,209689,996.266,6.36687593538182,1.6943261038679966
17025,Clay,"Clay County, IL",17,13184,468.316,6.257701566527035,0.2816471550696776
17029,Coles,"Coles County, IL",17,50621,508.291,6.401263318736037,1.0703025749995787
17035,Cumberland,"Cumberland County, IL",17,10766,346.024,6.4072836010901355,0.8209467485785314
17037,DeKalb,"DeKalb County, IL",17,104897,631.307,5.801464514708224,3.4206562180302127
17041,Douglas,"Douglas County, IL",17,19465,416.665,6.383916440773871,1.32074307406473
17049,Effingham,"Effingham County, IL",17,34008,478.777,6.157076987019744,0.5837117721255759
17053,Ford,"Ford County, IL",17,12961,485.616,6.310968972248203,2.1521701247372205
17065,Hamilton,"Hamilton County, IL",17,8116,434.665,6.273560251421825,-0.39774356787562737
20209,Wyandotte,"Wyandotte County, KS",20,165429,151.6,1.412774955713222,0.4238893617687688
21001,Adair,"Adair County, KY",21,19202,405.283,8.912276946004658,-1.1361023111651327
21005,Anderson,"Anderson County, KY",21,22747,201.832,9.035354373650557,-0.20747656009382837
21021,Boyle,"Boyle County, KY",21,30060,180.169,9.174019124830124,-0.5778551404174289
21029,Bullitt,"Bullitt County, KY",21,81676,297.024,8.491838991484581,-0.3036701359427849
21035,Calloway,"Calloway County, KY",21,39001,385.021,6.600689617163904,-1.8508939671926936
21045,Casey,"Casey County, KY",21,16159,444.23,9.163749967399124,-0.8860911779361282
21053,Clinton,"Clinton County, KY",21,10218,197.246,9.070080463551992,-1.502125780176488
21061,Edmonson,"Edmonson County, KY",21,12150,302.883,8.149615564213443,-1.111676813140093
21073,Franklin,"Franklin County, KY",21,50991,207.747,9.09548535112768,0.03903218362619746
21081,Grant,"Grant County, KY",21,25069,257.965,9.24116166100959,0.4728767088079635
21083,Graves,"Graves County, KY",21,37266,551.743,6.292285208013153,-1.7722292568173474
21097,Harrison,"Harrison County, KY",21,18886,306.364,9.4908638371869,0.2922204754660087
21103,Henry,"Henry County, KY",21,16126,286.276,8.882975445079365,0.22711557503770202
21113,Jessamine,"Jessamine County, KY",21,54115,172.116,9.368426255757159,-0.3032492203965564
21129,Lee,"Lee County, KY",21,7403,208.857,10.07618728072821,-0.49612886215072405
21137,Lincoln,"Lincoln County, KY",21,24549,334.095,9.356569759673587,-0.7269307311664347
21141,Logan,"Logan County, KY",21,27102,552.131,7.6807758510155155,-1.5130487027419413
21149,McLean,"McLean County, KY",21,9207,252.474,7.316315057747691,-0.8686661965418172
21157,Marshall,"Marshall County, KY",21,31100,301.253,6.533931012185658,-1.5906969346872981
21165,Menifee,"Menifee County, KY",21,6489,203.585,10.120812436592535,-0.1368818064358135
21169,Metcalfe,"Metcalfe County, KY",21,10071,289.645,8.652395993909021,-1.2816073847198393
21179,Nelson,"Nelson County, KY",21,46233,417.512,8.688147032800657,-0.4493365452510902
21189,Owsley,"Owsley County, KY",21,4415,197.407,10.12435643432034,-0.668353533281211
21195,Pike,"Pike County, KY",21,57876,786.833,11.119522329662269,-0.48117040548598317
21201,Robertson,"Robertson County, KY",21,2108,99.911,9.69714419879003,0.3970202149191424
21215,Spencer,"Spencer County, KY",21,19351,186.677,8.77037849705246,-0.20827922152431305
21227,Warren,"Warren County, KY",21,132896,541.6,8.026376608656607,-1.343191501441592
21237,Wolfe,"Wolfe County, KY",21,7157,222.171,10.231403437870378,-0.32832671385935985
22003,Allen,"Allen County, LA",22,25627,761.847,3.185703190305262,-8.037457399522694
22013,Bienville,"Bienville County, LA",22,13241,811.268,2.9384723943043074,-6.357093630469177
22027,Claiborne,"Claiborne County, LA",22,15670,754.878,2.9732253750946365,-5.879986097949604
22037,East Feliciana,"East Feliciana County, LA",22,19135,453.41,4.703321381714615,-7.781508991707285
22047,Iberville,"Iberville County, LA",22,32511,618.627,4.4738620780494225,-8.376514393267756
22059,La Salle,"La Salle County, LA",22,14892,624.684,3.716654072619012,-6.999284424652736
22073,Ouachita,"Ouachita County, LA",22,153279,610.406,3.688899933526762,-6.199360766999635
22075,Plaquemines,"Plaquemines County, LA",22,23197,779.911,6.038089111765059,-9.112328947902949
22087,St. Bernard,"St. Bernard County, LA",22,47244,377.517,6.161174089911547,-8.68989683050087
22089,St. Charles,"St. Charles County, LA",22,53100,279.083,5.346549585485183,-8.671985923785474
22105,Tangipahoa,"Tangipahoa County, LA",22,134758,791.275,5.2611189584385425,-7.960927316363335
22111,Union,"Union County, LA",22,22108,876.988,3.491139329344731,-5.853319250486997
19041,Clay,"Clay County, IA",19,16016,567.238,1.0804873915002553,4.415110544213267
19043,Clayton,"Clayton County, IA",19,17549,778.539,3.858687346161127,4.256746654676284
19047,Crawford,"Crawford County, IA",19,16820,714.19,0.9195034855357135,3.364399193961804
19055,Delaware,"Delaware County, IA",19,17011,577.756,3.8578772797612206,3.8816207382597243
19063,Emmet,"Emmet County, IA",19,9208,395.883,1.4194961738030292,4.715031898779013
19065,Fayette,"Fayette County, IA",19,19650,730.811,3.4911747823106074,4.257912152488396
19069,Franklin,"Franklin County, IA",19,10070,581.972,2.4621164867622154,4.0902551841234045
19075,Grundy,"Grundy County, IA",19,12232,501.858,2.817103783016598,3.7691079467128232
19079,Hamilton,"Hamilton County, IA",19,14773,576.751,2.1464319713074467,3.73161574689185
19087,Henry,"Henry County, IA",19,19954,434.328,3.798093174429474,2.384533787014028
19091,Humboldt,"Humboldt County, IA",19,9558,434.352,1.7717720608556353,4.11782532739637
19095,Iowa,"Iowa County, IA",19,16184,586.457,3.379434123198633,3.0703756050367037
19101,Jefferson,"Jefferson County, IA",19,18295,435.51,3.493844843958922,2.4154827411614517
19105,Jones,"Jones County, IA",19,20681,575.621,4.048368630173004,3.538984731146939
19113,Linn,"Linn County, IA",19,226706,716.88,3.7069701776619586,3.480029890393352
19117,Lucas,"Lucas County, IA",19,8600,430.593,2.462729309435488,2.37695073480024
19121,Madison,"Madison County, IA",19,16338,561.006,1.94199625947572,2.667553185969027
19123,Mahaska,"Mahaska County, IA",19,22095,570.863,2.9655611571676954,2.700738456632292
19131,Mitchell,"Mitchell County, IA",19,10586,469.133,2.7866013232579405,4.72606097440048
19135,Monroe,"Monroe County, IA",19,7707,433.715,2.805774757843811,2.3877185431780172
19141,O'Brien,"O'Brien County, IA",19,13753,573.035,0.7363289914640532,4.413990728664288
19147,Palo Alto,"Palo Alto County, IA",19,8886,563.844,1.4238644784295034,4.418481749388851
19151,Pocahontas,"Pocahontas County, IA",19,6619,577.241,1.4284512946925365,4.069739666267905
19157,Poweshiek,"Poweshiek County, IA",19,18504,584.932,3.0344581155056556,3.0571175961821346
19159,Ringgold,"Ringgold County, IA",19,4894,535.498,1.7831489419591975,2.0643494698183753
19165,Shelby,"Shelby County, IA",19,11454,590.779,0.9751036147783148,3.010539144567286
19169,Story,"Story County, IA",19,97117,572.818,2.3330885459453623,3.386757034371194
19175,Union,"Union County, IA",19,12241,423.645,1.7787212815358566,2.3591460073248482
19179,Wapello,"Wapello County, IA",19,34969,431.833,3.14932676451879,2.4006297362564624
19183,Washington,"Washington County, IA",19,21965,568.835,3.652867085052033,2.7287394441159525
19195,Worth,"Worth County, IA",19,7381,400.123,2.4446753623853095,4.736499824709497
19197,Wright,"Wright County, IA",19,12562,580.422,2.117186064919841,4.081550594227606
20001,Allen,"Allen County, KS",20,12369,500.303,1.0101366044681388,-0.8212397768329389
20013,Brown,"Brown County, KS",20,9564,570.872,0.7953419352304274,1.1364709655850602
20017,Chase,"Chase County, KS",20,2648,773.06,0.001937564455381638,-0.4019092147143549
20025,Clark,"Clark County, KS",20,1994,974.632,-2.547105650659282,-1.419776378688352
20027,Clay,"Clay County, KS",20,8002,645.301,-0.4288021217620916,0.6597156087128271
20029,Cloud,"Cloud County, KS",20,8786,715.342,-0.7971944009244878,0.7973862687107904
20031,Coffey,"Coffey County, KS",20,8179,626.947,0.6705760154078537,-0.4689062324886063
20033,Comanche,"Comanche County, KS",20,1700,788.298,-2.116447485901543,-1.4803980464618187
20041,Dickinson,"Dickinson County, KS",20,18466,847.072,-0.4250312711342385,0.17159368201571246
20047,Edwards,"Edwards County, KS",20,2798,621.894,-2.124099136389032,-0.776478898115048
20049,Elk,"Elk County, KS",20,2530,644.265,0.2722852011385068,-1.259788681508075
20055,Finney,"Finney County, KS",20,36467,1301.967,-3.2295753586770086,-0.5716296340198759
20063,Gove,"Gove County, KS",20,2636,1071.665,-2.989573850193209,0.29802367946935365
20067,Grant,"Grant County, KS",20,7150,574.8,-3.700814804237651,-1.0339032344106376
20073,Greenwood,"Greenwood County, KS",20,5982,1143.3,0.28220079617262084,-0.8319227756627904
20077,Harper,"Harper County, KS",20,5436,801.269,-1.1737801319509407,-1.5063663209691494
20083,Hodgeman,"Hodgeman County, KS",20,1794,859.992,-2.573538867391065,-0.5570818386498506
20093,Kearny,"Kearny County, KS",20,3838,870.543,-3.685810016953891,-0.5920132064810888
20095,Kingman,"Kingman County, KS",20,7152,863.363,-1.213257195024181,-1.1343777581817776
20101,Lane,"Lane County, KS",20,1535,717.455,-2.9972040004099525,-0.14110155104610098
20105,Lincoln,"Lincoln County, KS",20,2962,719.396,-1.2341815142293782,0.3672402449750242
20109,Logan,"Logan County, KS",20,2794,1072.994,-3.5016348903501955,0.32561966914290147
20117,Marshall,"Marshall County, KS",20,9707,900.183,0.06576970001021672,1.0934408884879718
20131,Nemaha,"Nemaha County, KS",20,10231,717.427,0.4531925414455518,1.0921111523383844
20139,Osage,"Osage County, KS",20,15949,705.518,0.6748145602076618,-0.04928919873827683
20151,Pratt,"Pratt County, KS",20,9164,735.045,-1.6836840663895831,-1.032755857943806
20155,Reno,"Reno County, KS",20,61998,1255.346,-1.1648812765244974,-0.7376876315448411
20163,Rooks,"Rooks County, KS",20,4920,890.533,-2.082590834495271,0.6996098923898049
20165,Rush,"Rush County, KS",20,3036,717.763,-2.0992333067146034,-0.1356612135920138
20169,Saline,"Saline County, KS",20,54224,720.225,-0.8099488160295127,0.0945907734552534
20177,Shawnee,"Shawnee County, KS",20,176875,544.016,0.6507592859644953,0.34398275688819485
20185,Stafford,"Stafford County, KS",20,4156,792.046,-1.6558057419074677,-0.6466350281740926
20189,Stevens,"Stevens County, KS",20,5485,727.293,-3.7248072736308755,-1.406574626543051
20193,Thomas,"Thomas County, KS",20,7777,1074.687,-3.406915865228236,0.7588577773349109
20199,Wallace,"Wallace County, KS",20,1518,913.652,-3.975110150597808,0.35222605635485466
20205,Wilson,"Wilson County, KS",20,8525,570.418,0.6653096086179972,-1.1528604523619677
26057,Gratiot,"Gratiot County, MI",26,40711,568.464,8.696294065224684,5.115571572067282
26059,Hillsdale,"Hillsdale County, MI",26,45605,598.133,8.874045861742513,3.716743892376861
26061,Houghton,"Houghton County, MI",26,35684,1009.099,5.476204559723695,8.397579438646963
26065,Ingham,"Ingham County, MI",26,292406,556.12,8.947930934587216,4.44345811945726
26067,Ionia,"Ionia County, MI",26,64697,571.304,8.39893928795323,4.729503367370093
26069,Iosco,"Iosco County, MI",26,25127,549.096,9.253200365854253,6.2554922668983055
26073,Isabella,"Isabella County, MI",26,69872,572.677,8.48149971603796,5.440345324351856
26077,Kalamazoo,"Kalamazoo County, MI",26,265066,561.658,8.146357468140412,3.9948002717818936
26083,Keweenaw,"Keweenaw County, MI",26,2116,540.112,5.8295965996990855,8.893282646267613
26085,Lake,"Lake County, MI",26,11853,567.37,7.759917621211837,5.711139549921247
26093,Livingston,"Livingston County, MI",26,191995,565.254,9.282426365716647,4.49143429871055
26097,Mackinac,"Mackinac County, MI",26,10799,1021.569,8.099564266150848,7.781911232442192
26103,Marquette,"Marquette County, MI",26,66699,1808.401,6.2341111207797395,7.998934805821127
26107,Mecosta,"Mecosta County, MI",26,43453,555.071,8.139347491791142,5.4012063487813045
26109,Menominee,"Menominee County, MI",26,22780,1044.079,6.367436824748715,7.1645325409120275
26111,Midland,"Midland County, MI",26,83156,516.253,8.808801030344645,5.485662756544286
26117,Montcalm,"Montcalm County, MI",26,63888,705.399,8.300612133176326,5.086940503817863
26123,Newaygo,"Newaygo County, MI",26,48980,813.204,7.807722178422831,5.277665822516421
26129,Ogemaw,"Ogemaw County, MI",26,20997,563.488,8.909225947043218,6.190408614836999
26133,Osceola,"Osceola County, MI",26,23460,566.391,8.099393838319044,5.74789972256986
26135,Oscoda,"Oscoda County, MI",26,8241,565.731,8.864346495355708,6.533367126271994
26137,Otsego,"Otsego County, MI",26,24668,514.971,8.493231175243803,6.827918319367458
26143,Roscommon,"Roscommon County, MI",26,24019,519.636,8.566250018235857,6.149171621172793
26151,Sanilac,"Sanilac County, MI",26,41170,962.566,9.959426997479666,5.411031689006726
26155,Shiawassee,"Shiawassee County, MI",26,68122,530.668,9.068004679006899,4.81901567320418
26161,Washtenaw,"Washtenaw County, MI",26,367601,705.965,9.380518570393539,4.150261128768249
27009,Benton,"Benton County, MN",27,40889,408.301,1.862147191182347,7.036944686728269
27017,Carlton,"Carlton County, MN",27,35871,861.381,2.7540382546364053,7.946486400979685
27027,Clay,"Clay County, MN",27,64222,1045.366,0.12700457199115375,8.202914774305503
27029,Clearwater,"Clearwater County, MN",27,8818,998.94,0.885591851171204,8.87732459018596
27031,Cook,"Cook County, MN",27,5463,1452.277,4.155975910412069,9.299720686690726
27039,Dodge,"Dodge County, MN",27,20934,439.276,2.71140491339446,5.389863225650756
27041,Douglas,"Douglas County, MN",27,38141,637.3,0.8444197130693408,7.256218137980814
27051,Grant,"Grant County, MN",27,5972,548.16,0.4552791021345559,7.255574587120254
27057,Hubbard,"Hubbard County, MN",27,21491,925.675,1.204766673009805,8.418977532243439
27059,Isanti,"Isanti County, MN",27,40596,435.794,2.3579627366553244,6.912637381644726
27065,Kanabec,"Kanabec County, MN",27,16337,521.586,2.348137717408588,7.293143824445912
27073,Lac qui Parle,"Lac qui Parle County, MN",27,6623,765.021,0.3412242971440211,6.3240436371269375
27079,Le Sueur,"Le Sueur County, MN",27,28887,448.76,2.0813939869251614,5.720631326429161
27081,Lincoln,"Lincoln County, MN",27,5639,536.757,0.27337307532093513,5.742502888217247
27083,Lyon,"Lyon County, MN",27,25474,714.559,0.5783203483451113,5.743480598311686
27085,McLeod,"McLeod County, MN",27,35893,491.471,1.6868391555043731,6.1635187611634175
27091,Martin,"Martin County, MN",27,19683,712.347,1.5072065982797342,5.013035243095123
27111,Otter Tail,"Otter Tail County, MN",27,58746,1972.068,0.6658181146717136,7.725303641560962
27119,Polk,"Polk County, MN",27,31364,1971.128,0.19262971977651325,9.069607997569715
27121,Pope,"Pope County, MN",27,11249,669.713,0.8525492812663532,6.911651784078047
27125,Red Lake,"Red Lake County, MN",27,4055,432.407,0.399101954092834,9.16558541984329
27131,Rice,"Rice County, MN",27,66972,495.684,2.3910030916421325,5.711771787709128
27137,St. Louis,"St. Louis County, MN",27,199070,6247.401,2.859806113371908,8.940288063744184
27143,Sibley,"Sibley County, MN",27,14865,588.779,1.7199139966493806,5.920787220531448
27147,Steele,"Steele County, MN",27,36649,429.645,2.4507951755038846,5.381908166153028
27153,Todd,"Todd County, MN",27,24664,944.982,1.2298269936258335,7.3948058225313416
27159,Wadena,"Wadena County, MN",27,13682,536.268,1.1740130182811948,7.903854310327124
27165,Watonwan,"Watonwan County, MN",27,10897,434.947,1.457297111881746,5.316301448651073
27167,Wilkin,"Wilkin County, MN",27,6207,750.957,0.139830423258975,7.674341666032107
28003,Alcorn,"Alcorn County, MS",28,36953,400.038,6.493545515661765,-3.6188310062430062
28007,Attala,"Attala County, MS",28,18174,734.982,5.802751323108928,-5.475833663948519
28013,Calhoun,"Calhoun County, MS",28,14361,586.573,5.946387759144277,-4.611304185405759
28023,Clarke,"Clarke County, MS",28,15541,691.554,6.624662098774603,-6.464640811116267
28031,Covington,"Covington County, MS",28,18636,413.792,5.926080781076568,-6.92331802649507
28035,Forrest,"Forrest County, MS",28,74897,466.314,6.206941700643951,-7.34762019343539
28037,Franklin,"Franklin County, MS",28,7713,563.779,4.795642646317435,-7.147491947145389
28043,Grenada,"Grenada County, MS",28,20758,422.107,5.575895331162161,-4.803683102454654
28057,Itawamba,"Itawamba County, MS",28,23390,532.787,6.719375273866944,-4.2072480603136535
28061,Jasper,"Jasper County, MS",28,16383,676.243,6.264980923908219,-6.513825558002869
28065,Jefferson Davis,"Jefferson Davis County, MS",28,11128,408.443,5.701629760974059,-7.001657130411951
28067,Jones,"Jones County, MS",28,68098,694.795,6.25129506840077,-6.911345346988994
28073,Lamar,"Lamar County, MS",28,63343,497.055,5.992462017388961,-7.345449369347664
22119,Webster,"Webster County, LA",22,38340,593.03,2.6930123361042444,-5.998699494673226
22121,West Baton Rouge,"West Baton Rouge County, LA",22,26465,192.394,4.494229156477396,-8.171984962431264
22127,Winn,"Winn County, LA",22,13904,950.086,3.3035549577752827,-6.747135232285038
23003,Aroostook,"Aroostook County, ME",23,67055,6671.33,19.078971790915542,10.635877604743197
23005,Cumberland,"Cumberland County, ME",23,295003,835.241,18.63040403078854,7.62559017270441
23009,Hancock,"Hancock County, ME",23,54987,1586.893,19.8030032800639,8.7738268235139
23023,Sagadahoc,"Sagadahoc County, ME",23,35856,253.695,18.978329276511158,7.836963033130855
23029,Washington,"Washington County, ME",23,31379,2562.66,20.195790290201934,9.300624055752815
24001,Allegany,"Allegany County, MD",24,70416,424.158,13.593578425001505,2.126348600840856
24003,Anne Arundel,"Anne Arundel County, MD",24,579234,414.902,15.288304802233572,1.825997260993433
24017,Charles,"Charles County, MD",24,163257,457.749,15.096527874961629,1.2709308395061436
24019,Dorchester,"Dorchester County, MD",24,31929,540.765,15.836891157386733,1.3758976628008284
24027,Howard,"Howard County, MD",24,325690,250.741,14.99382143274661,2.016881830938838
24029,Kent,"Kent County, MD",24,19422,277.03,15.663397333312798,2.165388710226642
24035,Queen Anne's,"Queen Anne's County, MD",24,50381,371.908,15.716438871546261,1.9807444808360932
24037,St. Mary's,"St. Mary's County, MD",24,113510,357.18,15.431959489358997,1.1291318059961282
24041,Talbot,"Talbot County, MD",24,37181,268.538,15.720042169922644,1.6682203482817746
24043,Washington,"Washington County, MD",24,151049,457.78,14.26060125090721,2.2342475015338183
25003,Berkshire,"Berkshire County, MA",25,124944,926.825,17.033184378844155,5.686797380450097
25019,Nantucket,"Nantucket County, MA",25,11399,44.97,19.555027818986048,5.217096660057975
26005,Allegan,"Allegan County, MI",26,118081,825.231,7.847413664071041,4.31186469188977
26009,Antrim,"Antrim County, MI",26,23324,475.703,8.11608533370543,6.761534340325986
26015,Barry,"Barry County, MI",26,61550,553.092,8.269030085614645,4.3616993989237525
26019,Benzie,"Benzie County, MI",26,17766,319.704,7.539892033889359,6.338274185265802
26025,Calhoun,"Calhoun County, MI",26,134159,706.233,8.530090884671788,4.0392028359308725
26035,Clare,"Clare County, MI",26,30950,564.315,8.439635083300296,5.784874230776232
26037,Clinton,"Clinton County, MI",26,79595,566.408,8.740749159352317,4.768794003581321
26039,Crawford,"Crawford County, MI",26,14029,556.28,8.525584609710272,6.493295856079772
26045,Eaton,"Eaton County, MI",26,110268,575.175,8.611193284706646,4.401970367982153
26049,Genesee,"Genesee County, MI",26,405813,636.977,9.377226511110798,4.926707412182305
30045,Judith Basin,"Judith Basin County, MT",30,2007,1869.821,-9.267184281528381,9.07575951265217
30051,Liberty,"Liberty County, MT",30,2337,1430.045,-9.544005352929068,10.618255175348505
30065,Musselshell,"Musselshell County, MT",30,4633,1868.155,-8.072079936329217,8.363993549471688
30075,Powder River,"Powder River County, MT",30,1682,3297.298,-6.285401255490921,7.060230452909861
30091,Sheridan,"Sheridan County, MT",30,3309,1677.08,-5.202671087687319,10.244093194836076
30101,Toole,"Toole County, MT",30,4736,1915.647,-9.971179731644195,10.778957978038589
31001,Adams,"Adams County, NE",31,31363,563.272,-1.420752771779928,1.8645646775719806
31005,Arthur,"Arthur County, NE",31,463,715.355,-3.762683316075413,3.018580559509143
31009,Blaine,"Blaine County, NE",31,465,710.874,-2.4734531260982084,3.2993090109698997
31017,Brown,"Brown County, NE",31,2955,1221.333,-2.416810396458429,3.8161160212950156
31029,Chase,"Chase County, NE",31,3924,894.419,-3.827225136567875,1.9677655986349243
31035,Clay,"Clay County, NE",31,6203,572.289,-1.0818288078228377,1.856358253055078
31037,Colfax,"Colfax County, NE",31,10709,411.66,-0.3427544864335163,2.901470542332939
31039,Cuming,"Cuming County, NE",31,8846,570.619,-0.11789398649590574,3.2437807356405934
31047,Dawson,"Dawson County, NE",31,23595,1013.096,-2.3996525868981453,2.2456305852666736
31057,Dundy,"Dundy County, NE",31,1693,919.678,-3.84059448403055,1.6174077354655887
31063,Frontier,"Frontier County, NE",31,2627,974.592,-2.8456712672988997,1.9219060042520208
31069,Garden,"Garden County, NE",31,1837,1704.283,-4.232949874212948,3.0981595084165825
31073,Gosper,"Gosper County, NE",31,1990,458.155,-2.4220757711130823,1.8881006281602069
31085,Hayes,"Hayes County, NE",31,922,713.062,-3.3485336738810223,1.9413133230084818
31091,Hooker,"Hooker County, NE",31,682,721.121,-3.3283169832981483,3.343358420859298
31093,Howard,"Howard County, NE",31,6445,569.337,-1.4138426240706603,2.5655178082320123
31097,Johnson,"Johnson County, NE",31,5071,376.051,0.2635127418869708,1.7070785330585314
31109,Lancaster,"Lancaster County, NE",31,319090,837.548,-0.052611143101939296,2.103201499735334
31111,Lincoln,"Lincoln County, NE",31,34914,2564.068,-3.084346392596066,2.455127562797818
31115,Loup,"Loup County, NE",31,664,568.29,-2.0878058187001955,3.2852582166789843
31117,McPherson,"McPherson County, NE",31,494,858.976,-3.2913176102700343,2.990933420920307
31121,Merrick,"Merrick County, NE",31,7755,484.881,-1.0581652942310193,2.5062369342996815
31123,Morrill,"Morrill County, NE",31,4642,1423.838,-4.725540034175172,3.2306596816283113
31129,Nuckolls,"Nuckolls County, NE",31,4148,575.155,-1.0864733597489924,1.5053548687709009
31135,Perkins,"Perkins County, NE",31,2891,883.335,-3.7718155312042945,2.2949985907623947
31139,Pierce,"Pierce County, NE",31,7148,573.249,-0.7132423682400693,3.60110482982591
31149,Rock,"Rock County, NE",31,1357,1008.318,-2.0655752818128046,3.7945451898132467
31151,Saline,"Saline County, NE",31,14224,574.018,-0.3960222635791821,1.8447103515491803
31157,Scotts Bluff,"Scotts Bluff County, NE",31,35618,739.401,-5.229800050284822,3.4064103298267012
31163,Sherman,"Sherman County, NE",31,3001,565.828,-1.7563439716045202,2.575826897938243
31167,Stanton,"Stanton County, NE",31,5920,427.949,-0.41828079726814993,3.24748951549493
31171,Thomas,"Thomas County, NE",31,722,713.236,-2.9006825139827725,3.3192364060803694
31179,Wayne,"Wayne County, NE",31,9385,442.915,-0.3595909462779999,3.540849215283737
31183,Wheeler,"Wheeler County, NE",31,783,575.182,-1.4036280589440484,3.2647443146105353
31185,York,"York County, NE",31,13679,572.51,-0.7337642637758295,2.2008534506584447
32003,Clark,"Clark County, NV",32,2266715,7891.431,-14.633795629273035,-0.9961312308173524
32015,Lander,"Lander County, NV",32,5532,5490.105,-15.392192093311342,3.0015356183204744
32027,Pershing,"Pershing County, NV",32,6725,6036.563,-16.282200898492558,3.7356495235497342
32510,Carson City,"Carson City, NV",32,55916,144.662,-17.588132275246092,2.7212375384942185
33007,Coos,"Coos County, NH",33,31563,1794.685,17.78724754857614,8.261995964258947
33009,Grafton,"Grafton County, NH",33,89886,1708.749,17.62189663368518,7.451606336198082
33013,Merrimack,"Merrimack County, NH",33,151391,934.116,17.883683460287447,6.8569162926497516
34003,Bergen,"Bergen County, NJ",34,932202,233.009,16.738437479344526,4.161043648305293
34017,Hudson,"Hudson County, NJ",34,672391,46.191,16.788136485820413,3.9444272908597187
34029,Ocean,"Ocean County, NJ",34,607186,628.781,16.833575289908346,3.0707444322059216
34035,Somerset,"Somerset County, NJ",34,328934,301.813,16.43315679109626,3.6815458418818707
35001,Bernalillo,"Bernalillo County, NM",35,679121,1160.828,-8.178549331165236,-3.197210922127991
28075,Lauderdale,"Lauderdale County, MS",28,74125,703.634,6.6189291331540385,-6.101330584915352
28077,Lawrence,"Lawrence County, MS",28,12586,430.668,5.462300727384768,-7.036467982707975
28079,Leake,"Leake County, MS",28,22786,583,5.873550169741147,-5.804990868284416
28081,Lee,"Lee County, MS",28,85436,449.951,6.457893716039518,-4.2180039890426
28085,Lincoln,"Lincoln County, MS",28,34153,586.115,5.1692073936421785,-7.0713198020338
28091,Marion,"Marion County, MS",28,24573,542.384,5.724170395991348,-7.338473446342374
28097,Montgomery,"Montgomery County, MS",28,9775,406.981,5.746878634022609,-5.07035664605461
28101,Newton,"Newton County, MS",28,21018,578.104,6.237278317868776,-6.134035127148612
28107,Panola,"Panola County, MS",28,34192,685.144,5.414330852268019,-4.216415952630956
28115,Pontotoc,"Pontotoc County, MS",28,32174,497.689,6.171063164253982,-4.304410686861942
28117,Prentiss,"Prentiss County, MS",28,25126,414.98,6.563241853208143,-3.8784698957083394
28123,Scott,"Scott County, MS",28,28124,609.185,5.8859893205166065,-6.1523047851824435
28129,Smith,"Smith County, MS",28,15916,636.252,5.938608577229548,-6.537880467181725
28139,Tippah,"Tippah County, MS",28,22015,457.815,6.235301084530659,-3.752162806792275
28145,Union,"Union County, MS",28,28815,415.598,6.178661451005165,-4.03664016340819
28153,Wayne,"Wayne County, MS",28,20183,810.75,6.649747181906741,-6.863518527670317
28159,Winston,"Winston County, MS",28,17955,607.245,6.257219491832642,-5.441893289618958
29001,Adair,"Adair County, MO",29,25343,567.324,3.0366534001755916,1.5490873331158124
29007,Audrain,"Audrain County, MO",29,25388,692.235,3.6540813990950576,0.5892133290285589
29015,Benton,"Benton County, MO",29,19443,704.06,2.571446245234488,-0.3802021413565922
29025,Caldwell,"Caldwell County, MO",29,9020,426.393,2.0021918807164694,0.9797323841217578
29027,Callaway,"Callaway County, MO",29,44743,834.575,3.60537218576552,0.20300512063079726
29035,Carter,"Carter County, MO",29,5982,507.361,4.4496924834073495,-1.6718021317866567
29043,Christian,"Christian County, MO",29,88595,562.645,2.6881766790661916,-1.7159858210023784
29049,Clinton,"Clinton County, MO",29,20387,418.956,1.6814600106074722,0.9187131149260139
29053,Cooper,"Cooper County, MO",29,17709,564.765,2.924012525724316,0.18443609809799238
29057,Dade,"Dade County, MO",29,7561,490.012,2.1540447864409513,-1.2627512293609422
29063,DeKalb,"DeKalb County, MO",29,12547,421.356,1.6766130164617754,1.2128477314940491
29067,Douglas,"Douglas County, MO",29,13185,813.632,3.2346890640599812,-1.7345537397483783
29075,Gentry,"Gentry County, MO",29,6571,491.422,1.6674704235231232,1.5347721746284637
29079,Grundy,"Grundy County, MO",29,9850,435.276,2.308863814087401,1.44952383227923
29085,Hickory,"Hickory County, MO",29,9544,399.091,2.556052015167919,-0.7378438560284235
29093,Iron,"Iron County, MO",29,10125,550.259,4.636319841596636,-1.0216796205270942
29095,Jackson,"Jackson County, MO",29,703011,604.462,1.7365197346016152,0.3206641498842879
29101,Johnson,"Johnson County, MO",29,54062,829.282,2.1579948138281253,0.06269554801808114
29103,Knox,"Knox County, MO",29,3959,504.011,3.3818860155601196,1.4986001278452872
29109,Lawrence,"Lawrence County, MO",29,38355,611.737,2.1752361520345547,-1.5910098512262605
29115,Linn,"Linn County, MO",29,11920,615.564,2.6636429397339856,1.2131528597964139
29119,McDonald,"McDonald County, MO",29,22837,539.48,1.7763490737759113,-2.0810462783914443
29125,Maries,"Maries County, MO",29,8697,526.979,3.6359130121221424,-0.477272202423931
29135,Moniteau,"Moniteau County, MO",29,16132,415.025,3.1065212559951765,-0.022267610550504816
29139,Montgomery,"Montgomery County, MO",29,11551,536.247,3.9519415949171846,0.32426683178834875
29149,Oregon,"Oregon County, MO",29,10529,789.796,4.113303871043601,-1.9458608633798136
29159,Pettis,"Pettis County, MO",29,42339,682.222,2.5609341660983143,0.056962029006632546
29161,Phelps,"Phelps County, MO",29,44573,671.784,3.7511931450121194,-0.7602036255737513
29167,Polk,"Polk County, MO",29,32149,635.523,2.5027153227003005,-1.0676292818827968
29175,Randolph,"Randolph County, MO",29,24748,482.684,3.1429970636641933,0.7950830221779047
29185,St. Clair,"St. Clair County, MO",29,9397,669.983,2.1979538293711745,-0.6506195275080956
29187,St. Francois,"St. Francois County, MO",29,67215,451.887,4.785187611271599,-0.7735746061659743
29197,Schuyler,"Schuyler County, MO",29,4660,307.303,3.086880777402319,1.8327961485584972
29203,Shannon,"Shannon County, MO",29,8166,1003.82,4.0930178344786325,-1.4715267806151038
29211,Sullivan,"Sullivan County, MO",29,6089,647.981,2.649570367563622,1.5561399153197955
29215,Texas,"Texas County, MO",29,25398,1177.266,3.6408626084616116,-1.3305998550695615
29221,Washington,"Washington County, MO",29,24730,759.913,4.460300632232765,-0.6394801396228742
29229,Wright,"Wright County, MO",29,18289,681.771,3.2460920556411943,-1.3930478499376553
30001,Beaverhead,"Beaverhead County, MT",30,9453,5541.624,-11.380726656959158,7.505503572593056
30011,Carter,"Carter County, MT",30,1252,3340.752,-5.509914713585606,7.106410204981659
30025,Fallon,"Fallon County, MT",30,2846,1620.772,-5.354463425785756,7.906244722046476
30035,Glacier,"Glacier County, MT",30,13753,2995.937,-10.814273455039048,10.972409420214664
37179,Union,"Union County, NC",37,239859,631.52,12.974299506290697,-2.727236394982756
37181,Vance,"Vance County, NC",37,44535,253.517,14.416718438853472,-1.0643108420063263
37191,Wayne,"Wayne County, NC",37,123131,553.087,14.923510375301763,-1.99629554840193
38003,Barnes,"Barnes County, ND",38,10415,1491.554,-0.9569631819056009,8.260421312357884
38007,Billings,"Billings County, ND",38,928,1148.853,-4.583510755113745,8.525162745524725
38013,Burke,"Burke County, ND",38,2115,1103.568,-3.877121657053312,10.20916024852763
38017,Cass,"Cass County, ND",38,181923,1764.937,-0.39235230953241135,8.247901800135189
38019,Cavalier,"Cavalier County, ND",38,3762,1488.751,-1.1791125774911562,10.065738432881524
38027,Eddy,"Eddy County, ND",38,2287,630.171,-1.5023924991136712,9.043854696161173
38031,Foster,"Foster County, ND",38,3210,635.453,-1.497338410844994,8.788084595419676
38039,Griggs,"Griggs County, ND",38,2231,708.815,-1.0582089979451057,8.775792344695857
38041,Hettinger,"Hettinger County, ND",38,2499,1132.221,-3.997773963503832,7.899569398741826
38045,LaMoure,"LaMoure County, ND",38,4046,1145.943,-1.2878078986830603,7.796224978149569
38057,Mercer,"Mercer County, ND",38,8187,1042.957,-3.5104271371866127,8.733113360661978
38063,Nelson,"Nelson County, ND",38,2879,981.775,-1.017011256467195,9.230445706096603
38069,Pierce,"Pierce County, ND",38,3975,1018.6,-2.205187393166204,9.58878492494239
38075,Renville,"Renville County, ND",38,2327,877.053,-3.30863147397539,10.103080223244238
38083,Sheridan,"Sheridan County, ND",38,1315,972.379,-2.4865141782140934,8.94082879013773
38089,Stark,"Stark County, ND",38,31489,1334.735,-4.105573741444106,8.280987058403044
38095,Towner,"Towner County, ND",38,2189,1024.561,-1.7024760194812618,9.995850298375581
38097,Traill,"Traill County, ND",38,8036,861.949,-0.32683939148021834,8.759956909564941
38103,Wells,"Wells County, ND",38,3834,1271.047,-2.0214062447008763,8.933329602998734
39003,Allen,"Allen County, OH",39,102351,402.496,9.371831417468798,2.6464354142281743
39011,Auglaize,"Auglaize County, OH",39,45656,401.386,9.310989457560233,2.424991681026582
39019,Carroll,"Carroll County, OH",39,26914,394.609,11.644167686406668,2.773301971216556
39023,Clark,"Clark County, OH",39,134083,397.473,9.72235172708571,1.8223270708392199
39031,Coshocton,"Coshocton County, OH",39,36600,563.913,11.067766382203994,2.4014872475429754
39033,Crawford,"Crawford County, OH",39,41494,401.786,10.243747735423662,2.841923001930537
39041,Delaware,"Delaware County, OH",39,209177,443.098,10.259527837190772,2.262116491014692
39047,Fayette,"Fayette County, OH",39,28525,406.357,10.016589650292328,1.4981573536494948
39053,Gallia,"Gallia County, OH",39,29898,466.53,10.984646218363697,0.8830081872600821
39055,Geauga,"Geauga County, OH",39,93649,400.164,11.433633759922595,3.6776554882575736
39059,Guernsey,"Guernsey County, OH",39,38875,522.254,11.424427955685752,2.200786799702142
39065,Hardin,"Hardin County, OH",39,31365,470.405,9.719324597316216,2.5788940207843507
39073,Hocking,"Hocking County, OH",39,28264,421.323,10.764755116520398,1.5371162267897907
39077,Huron,"Huron County, OH",39,58266,491.495,10.440420992687178,3.170330879707002
39089,Licking,"Licking County, OH",39,176862,682.5,10.67685940610327,2.130288751337837
39091,Logan,"Logan County, OH",39,45672,458.429,9.674559858748617,2.296171114008152
39097,Madison,"Madison County, OH",39,44731,465.875,10.014427634844246,1.838012533153554
39103,Medina,"Medina County, OH",39,179746,421.358,10.961230457602092,3.2168957014931396
39109,Miami,"Miami County, OH",39,106987,406.58,9.36956088299577,1.916951075442564
39117,Morrow,"Morrow County, OH",39,35328,406.079,10.383756294897996,2.5296791645921886
39125,Paulding,"Paulding County, OH",39,18672,416.438,8.976643645515455,2.948140145971184
39131,Pike,"Pike County, OH",39,27772,440.282,10.377887177807525,1.0550102399312498
39137,Putnam,"Putnam County, OH",39,33861,482.522,9.321090497480071,2.8944905640459364
39143,Sandusky,"Sandusky County, OH",39,58518,408.453,10.008159808075149,3.324533715431454
39147,Seneca,"Seneca County, OH",39,55178,551.017,10.052327725467915,3.0931631863354245
39157,Tuscarawas,"Tuscarawas County, OH",39,91987,567.636,11.380166588801513,2.589820260826943
39159,Union,"Union County, OH",39,58988,431.73,9.98202760250952,2.2454291095897414
39165,Warren,"Warren County, OH",39,234602,401.314,9.494802995129291,1.2953273393109175
39169,Wayne,"Wayne County, OH",39,115710,554.929,11.013179164713733,2.930997914874758
40005,Atoka,"Atoka County, OK",40,13758,975.517,0.4324504821809961,-4.363806765075866
40011,Blaine,"Blaine County, OK",40,9429,928.424,-1.4900646096939332,-2.827585165345893
40019,Carter,"Carter County, OK",40,48111,822.175,-0.5905460336231678,-4.479834317920952
40027,Cleveland,"Cleveland County, OK",40,284014,538.766,-0.6108565993995233,-3.5224517342378476
40037,Creek,"Creek County, OK",40,71522,950.141,0.16604349283137887,-2.8244852575609927
40039,Custer,"Custer County, OK",40,29003,988.817,-1.9533078436179587,-3.0523423413272637
40043,Dewey,"Dewey County, OK",40,4891,999.476,-1.9475816818433522,-2.700696495981579
40053,Grant,"Grant County, OK",40,4333,1000.871,-0.9526697357249858,-1.9101003475227996
35011,De Baca,"De Baca County, NM",35,1748,2322.623,-6.41839046043482,-4.090938811729196
35015,Eddy,"Eddy County, NM",35,58460,4175.726,-6.494554776073318,-5.968192887269364
35017,Grant,"Grant County, NM",35,26998,3961.625,-9.860645145672494,-5.333498619024891
35027,Lincoln,"Lincoln County, NM",35,19572,4831.091,-7.3319845353351685,-4.608105955468034
35035,Otero,"Otero County, NM",35,67490,6613.209,-7.680076132625908,-5.713915519560111
35047,San Miguel,"San Miguel County, NM",35,27277,4715.821,-6.641276946262643,-2.920023103663784
35057,Torrance,"Torrance County, NM",35,15461,3344.845,-7.5602967327356625,-3.680289178544679
35061,Valencia,"Valencia County, NM",35,76688,1066.175,-8.328920214989752,-3.520544552124414
36011,Cayuga,"Cayuga County, NY",36,76576,691.582,14.52469010025295,5.684338233207395
36021,Columbia,"Columbia County, NY",36,59461,634.705,16.75778529069468,5.496843224226394
36023,Cortland,"Cortland County, NY",36,47581,498.76,14.937239944944505,5.440831954557979
36033,Franklin,"Franklin County, NY",36,50022,1629.119,15.745468441679817,7.660686144795429
36041,Hamilton,"Hamilton County, NY",36,4416,1717.373,15.82058392153199,6.726251023502594
36049,Lewis,"Lewis County, NY",36,26296,1274.679,15.124758242543814,6.697652609411013
36057,Montgomery,"Montgomery County, NY",36,49221,403.043,16.032355381736146,5.997926149191354
36065,Oneida,"Oneida County, NY",36,228671,1212.429,15.251553658822202,6.170582019868009
36073,Orleans,"Orleans County, NY",36,40352,391.259,13.2644091034437,5.777605020782007
36079,Putnam,"Putnam County, NY",36,98320,230.312,16.86659531596251,4.673340811421012
36087,Rockland,"Rockland County, NY",36,325789,173.55,16.73087206524017,4.35831004264377
36095,Schoharie,"Schoharie County, NY",36,30999,621.819,16.102095749789314,5.690946082716117
36107,Tioga,"Tioga County, NY",36,48203,518.602,14.855865431379064,4.989260440416713
36117,Wayne,"Wayne County, NY",36,89918,603.826,14.138328074921617,5.850238241722447
37001,Alamance,"Alamance County, NC",37,169509,423.943,13.695880437109084,-1.5249302167197882
37003,Alexander,"Alexander County, NC",37,37497,259.994,12.309747123668382,-1.8820373297597357
37005,Alleghany,"Alleghany County, NC",37,11137,235.059,12.259684694545518,-1.3062971823773792
37017,Bladen,"Bladen County, NC",37,32722,874.328,14.617720180550048,-2.8217600183975255
37025,Cabarrus,"Cabarrus County, NC",37,216453,361.749,12.89309168713829,-2.3333634392906446
37033,Caswell,"Caswell County, NC",37,22604,424.922,13.68574056172761,-1.1683577598557913
37043,Clay,"Clay County, NC",37,11231,214.751,10.378337279604139,-3.038061561754285
37055,Dare,"Dare County, NC",37,37009,383.42,16.57361748510276,-1.2220540609039634
37057,Davidson,"Davidson County, NC",37,167609,552.675,13.096147449475454,-1.8851939175115169
37063,Durham,"Durham County, NC",37,321488,285.975,14.1093881972758,-1.4586010101661895
37073,Gates,"Gates County, NC",37,11562,340.445,15.73715797217913,-0.7226000793492161
37081,Guilford,"Guilford County, NC",37,537174,645.704,13.382225073542724,-1.542774430982402
37091,Hertford,"Hertford County, NC",37,23677,353.06,15.535027716229196,-0.8521762108623924
37101,Johnston,"Johnston County, NC",37,209339,791.299,14.607632293185706,-1.8982598797192767
37109,Lincoln,"Lincoln County, NC",37,86111,297.938,12.340429785975918,-2.320092264813599
37123,Montgomery,"Montgomery County, NC",37,27173,491.76,13.416153233181047,-2.300834262186821
37127,Nash,"Nash County, NC",37,94298,540.407,14.824668976878858,-1.395439386908412
37135,Orange,"Orange County, NC",37,148476,397.958,13.9120278603422,-1.4684359675929355
37145,Person,"Person County, NC",37,39490,392.322,13.970538636513353,-1.120774324680093
37151,Randolph,"Randolph County, NC",37,143667,782.517,13.431748274252211,-1.9122761019603536
37155,Robeson,"Robeson County, NC",37,130625,949.221,14.17920137708786,-2.8764679723842224
37167,Stanly,"Stanly County, NC",37,62806,395.086,13.144643902551028,-2.3687586483510157
45045,Greenville,"Greenville County, SC",45,523542,785.12,11.510414892737053,-3.0485073314107085
45047,Greenwood,"Greenwood County, SC",45,70811,454.726,11.816016830515927,-3.7562527769596907
45051,Horry,"Horry County, SC",45,354081,1133.896,14.39413573635748,-3.571556950738642
45061,Lee,"Lee County, SC",45,16828,410.184,13.33273862316289,-3.50968100699498
45081,Saluda,"Saluda County, SC",45,20473,452.778,12.162207335650658,-3.855491394337654
45087,Union,"Union County, SC",45,27316,514.171,12.146362495621345,-3.161994456197939
46003,Aurora,"Aurora County, SD",46,2751,708.425,-1.379016045773087,5.073446010578632
46005,Beadle,"Beadle County, SD",46,18453,1258.71,-1.1586739009468372,5.764121150071848
46013,Brown,"Brown County, SD",46,38839,1712.981,-1.1821299718028566,6.934072586983004
46017,Buffalo,"Buffalo County, SD",46,1962,471.384,-1.8300461193200017,5.445757500834641
46025,Clark,"Clark County, SD",46,3736,957.604,-0.7601366733496817,6.197764813753162
46029,Codington,"Codington County, SD",46,28009,688.495,-0.3760494046638382,6.311319801379491
46043,Douglas,"Douglas County, SD",46,2921,431.802,-1.2474044340785413,4.738917385531171
46045,Edmunds,"Edmunds County, SD",46,3829,1125.956,-1.7923113810078166,6.7826665854396975
46055,Haakon,"Haakon County, SD",46,1899,1810.534,-3.4871068901993003,5.7395148274426395
46061,Hanson,"Hanson County, SD",46,3453,434.513,-0.8230092752048551,5.0173503506128005
46067,Hutchinson,"Hutchinson County, SD",46,7291,812.904,-0.8062257141345988,4.676862704961345
46073,Jerauld,"Jerauld County, SD",46,2013,526.233,-1.4189163813916805,5.423066082133042
46077,Kingsbury,"Kingsbury County, SD",46,4939,832.236,-0.5993692431525774,5.7079964549813855
46079,Lake,"Lake County, SD",46,12797,563.277,-0.3453472290176655,5.357330858808688
46087,McCook,"McCook County, SD",46,5586,574.204,-0.5216607181368618,5.011973742518129
46097,Miner,"Miner County, SD",46,2216,570.311,-0.6896802587623362,5.362188704801892
46099,Minnehaha,"Minnehaha County, SD",46,193134,807.147,-0.10610961603695479,5.007313005293647
46107,Potter,"Potter County, SD",46,2153,861.14,-2.327539240072115,6.450254592511694
46111,Sanborn,"Sanborn County, SD",46,2344,569.321,-1.0340351132986527,5.37077540458065
46121,Todd,"Todd County, SD",46,10177,1388.556,-2.957058645547501,4.608404140674997
46125,Turner,"Turner County, SD",46,8384,617.057,-0.3678141731793198,4.646128258659836
46137,Ziebach,"Ziebach County, SD",46,2756,1961.272,-3.536175694181117,6.425978528643955
47003,Bedford,"Bedford County, TN",47,49713,473.635,8.147772328925825,-2.830440422651472
47005,Benton,"Benton County, TN",47,16160,394.142,6.808319594663015,-2.3917803094794774
47015,Cannon,"Cannon County, TN",47,14678,265.635,8.436393151359203,-2.5041766488975266
47017,Carroll,"Carroll County, TN",47,27767,599.252,6.511100243350283,-2.5137681471794986
47031,Coffee,"Coffee County, TN",47,56520,428.957,8.458298191519884,-2.823057230746772
47039,Decatur,"Decatur County, TN",47,11663,333.845,6.814948110124524,-2.8635647150423336
47047,Fayette,"Fayette County, TN",47,41133,704.786,5.794811125242621,-3.3511704014285475
47053,Gibson,"Gibson County, TN",47,49133,602.742,6.123812928630981,-2.5196681213550374
47061,Grundy,"Grundy County, TN",47,13427,360.534,8.753137319362166,-2.894418902606368
47069,Hardeman,"Hardeman County, TN",47,25050,667.768,6.134225636331406,-3.3171081498268435
47077,Henderson,"Henderson County, TN",47,28117,520.073,6.586542821581639,-2.8302828976112595
47083,Houston,"Houston County, TN",47,8201,200.286,7.069042333071011,-2.150273300168182
47099,Lawrence,"Lawrence County, TN",47,44142,617.128,7.422430996647086,-3.2008094271039136
47107,McMinn,"McMinn County, TN",47,53794,430.125,9.635886303831889,-2.7581032084221317
47113,Madison,"Madison County, TN",47,97984,557.117,6.228303343588746,-2.9047360792290813
47125,Montgomery,"Montgomery County, TN",47,208993,539.177,7.316509270312942,-1.9148492060809763
47133,Overton,"Overton County, TN",47,22241,433.483,8.9933489681062,-1.898599488967068
47153,Sequatchie,"Sequatchie County, TN",47,15026,265.858,9.006021426039148,-2.8853248425835623
47169,Trousdale,"Trousdale County, TN",47,11284,114.193,8.300954949121824,-1.9226482645119647
47173,Union,"Union County, TN",47,19972,223.549,10.148930868056494,-1.8158891418170007
47179,Washington,"Washington County, TN",47,129375,326.465,11.208902556343094,-1.6665497110195335
40057,Harmon,"Harmon County, OK",40,2653,537.194,-2.6697161149989124,-3.9282298688600514
40059,Harper,"Harper County, OK",40,3688,1039.017,-2.4439389893939634,-1.874920467458466
40063,Hughes,"Hughes County, OK",40,13279,804.647,0.26052631323896125,-3.6850907115313447
40069,Johnston,"Johnston County, OK",40,11085,642.94,-0.07768307090893643,-4.419474308263584
40073,Kingfisher,"Kingfisher County, OK",40,15765,898.161,-1.0939541157110553,-2.7656557953290055
40077,Latimer,"Latimer County, OK",40,10073,722.08,1.0737166665089883,-3.8558797176708093
40091,McIntosh,"McIntosh County, OK",40,19596,618.496,0.7325266924902513,-3.356903637730611
40097,Mayes,"Mayes County, OK",40,41100,655.386,1.077942985969967,-2.4200064518704423
40103,Noble,"Noble County, OK",40,11131,731.895,-0.5173068399216516,-2.328282155499015
40109,Oklahoma,"Oklahoma County, OK",40,797434,708.819,-0.6711944774737251,-3.170196644920322
40119,Payne,"Payne County, OK",40,81784,684.703,-0.31744060735115875,-2.6447113185113715
40125,Pottawatomie,"Pottawatomie County, OK",40,72592,787.672,-0.30436707792765,-3.5215557308345398
40131,Rogers,"Rogers County, OK",40,92459,675.632,0.7796355661541895,-2.3512419501570694
40137,Stephens,"Stephens County, OK",40,43143,870.244,-1.0500133070435396,-4.23669723247692
40147,Washington,"Washington County, OK",40,51527,415.454,0.5397330035047297,-2.005837058208919
40153,Woodward,"Woodward County, OK",40,20211,1242.399,-2.138471647894709,-2.255580551092134
41013,Crook,"Crook County, OR",41,24404,2979.086,-16.766007231436866,7.677672900428578
41025,Harney,"Harney County, OR",41,7393,10133.17,-16.063280171715135,6.385808300295714
41031,Jefferson,"Jefferson County, OR",41,24658,1780.785,-17.205242021811166,8.29487698635702
41049,Morrow,"Morrow County, OR",41,11603,2031.609,-15.917437457558876,8.76730710494289
41053,Polk,"Polk County, OR",41,86085,740.787,-18.65547224151973,8.983658418231169
41067,Washington,"Washington County, OR",41,601592,724.23,-18.25673046770074,9.543806979766988
42007,Beaver,"Beaver County, PA",42,163929,434.712,12.17742828369944,2.9647779508273473
42011,Berks,"Berks County, PA",42,421164,856.506,15.500940915013617,3.322907164561604
42013,Blair,"Blair County, PA",42,121829,525.8,13.6968685499652,3.0272623205162623
42015,Bradford,"Bradford County, PA",42,60323,1147.399,14.784006620828936,4.582807140861911
42023,Cameron,"Cameron County, PA",42,4447,396.231,13.624354091436588,3.9923167031825164
42047,Elk,"Elk County, PA",42,29910,827.358,13.300623909100542,3.9204752947815495
42053,Forest,"Forest County, PA",42,7247,427.185,12.855486972798577,3.9293473021351373
42063,Indiana,"Indiana County, PA",42,84073,827.03,13.117319031355372,3.096507705027544
42069,Lackawanna,"Lackawanna County, PA",42,209674,459.078,15.515649077464442,4.375608566640252
42075,Lebanon,"Lebanon County, PA",42,141793,361.833,15.118436569396927,3.1916041298639315
42083,McKean,"McKean County, PA",42,40625,979.197,13.289054625171183,4.309183195216646
42093,Montour,"Montour County, PA",42,18230,130.242,14.83449035163976,3.811855659191885
42105,Potter,"Potter County, PA",42,16526,1081.323,13.790726557036232,4.338990699156431
42107,Schuylkill,"Schuylkill County, PA",42,141359,778.634,15.22654412510785,3.5625591345024374
42113,Sullivan,"Sullivan County, PA",42,6066,449.94,14.856191134352422,4.246263564656028
42119,Union,"Union County, PA",42,44923,315.982,14.551500876268005,3.688050238080835
42131,Wyoming,"Wyoming County, PA",42,26794,397.324,15.201669781685668,4.393141683330343
45001,Abbeville,"Abbeville County, SC",45,24527,490.484,11.535651529722426,-3.7270705243993576
45009,Bamberg,"Bamberg County, SC",45,14066,393.37,12.834486564403976,-4.555553063782607
45023,Chester,"Chester County, SC",45,32244,580.657,12.516724368916933,-3.102549870411081
45031,Darlington,"Darlington County, SC",45,66618,561.153,13.543435247165387,-3.301830264001363
45039,Fairfield,"Fairfield County, SC",45,22347,686.277,12.594143319318134,-3.3930381119302107
48173,Glasscock,"Glasscock County, TX",48,1409,900.218,-4.200701252105617,-6.737137928791311
48175,Goliad,"Goliad County, TX",48,7658,852.014,-0.7900738351676679,-10.043938981722961
48179,Gray,"Gray County, TX",48,21886,925.974,-3.4231927407979503,-3.2319324627333685
48183,Gregg,"Gregg County, TX",48,123945,273.303,1.4556138753726395,-6.254627552322841
48189,Hale,"Hale County, TX",48,33406,1004.683,-4.323189335031003,-4.522090926247141
48193,Hamilton,"Hamilton County, TX",48,8461,835.914,-1.3243108811875388,-7.016203378047308
48205,Hartley,"Hartley County, TX",48,5576,1462.033,-4.835962146115269,-2.703196147308944
48207,Haskell,"Haskell County, TX",48,5658,903.131,-2.6373228754238607,-5.502765470237133
48209,Hays,"Hays County, TX",48,230191,677.978,-1.2919535996374127,-8.653351091623742
48219,Hockley,"Hockley County, TX",48,23021,908.392,-4.777940276506109,-4.958457450362171
48221,Hood,"Hood County, TX",48,61643,420.641,-1.0743628346400622,-6.2974058334259
48227,Howard,"Howard County, TX",48,36664,900.791,-4.10376949486331,-6.305869310439213
48231,Hunt,"Hunt County, TX",48,98594,840.318,0.39253613537662174,-5.618247736592321
48233,Hutchinson,"Hutchinson County, TX",48,20938,887.419,-3.8353098509244288,-2.7666773834957965
48237,Jack,"Jack County, TX",48,8935,910.662,-1.341570076983252,-5.487216587129716
48243,Jeff Davis,"Jeff Davis County, TX",48,2274,2264.555,-6.507761018016904,-7.723771619578972
48251,Johnson,"Johnson County, TX",48,175817,724.692,-0.6835856588611449,-6.354790896142056
48253,Jones,"Jones County, TX",48,20083,928.554,-2.778556279108199,-5.936166147870408
48263,Kent,"Kent County, TX",48,762,902.507,-3.507510242616327,-5.4611591772308525
48265,Kerr,"Kerr County, TX",48,52600,1103.318,-2.430737483454448,-8.618017233101217
48269,King,"King County, TX",48,272,910.872,-3.054105987726923,-5.045569110781821
48279,Lamb,"Lamb County, TX",48,12893,1016.181,-4.753929450780988,-4.496404791010958
48281,Lampasas,"Lampasas County, TX",48,21428,712.84,-1.4471895819514906,-7.519964323373369
48291,Liberty,"Liberty County, TX",48,88219,1158.417,1.4896363005534825,-8.572702517355816
48293,Limestone,"Limestone County, TX",48,23437,905.288,-0.029129765220428698,-7.193166613047973
48303,Lubbock,"Lubbock County, TX",48,310569,895.599,-4.346445347342951,-4.983620340906202
48305,Lynn,"Lynn County, TX",48,5951,891.867,-4.369680020726385,-5.41774095282564
48309,McLennan,"McLennan County, TX",48,256623,1037.101,-0.5566992311075262,-7.181102652481815
48311,McMullen,"McMullen County, TX",48,743,1139.426,-1.8024378294708971,-10.322477999678433
48317,Martin,"Martin County, TX",48,5771,914.944,-4.536578262481314,-6.280278509382725
48325,Medina,"Medina County, TX",48,51584,1325.356,-2.2476715139899177,-9.322033356334071
48327,Menard,"Menard County, TX",48,2138,902.03,-2.8045832022731485,-7.781584469620324
48335,Mitchell,"Mitchell County, TX",48,8545,911.09,-3.671898062378086,-6.3292800778401395
48341,Moore,"Moore County, TX",48,20940,899.691,-4.267160262887164,-2.7435216178079087
48345,Motley,"Motley County, TX",48,1200,989.562,-3.4636537607735756,-4.566286738819413
48353,Nolan,"Nolan County, TX",48,14714,911.997,-3.2393986449837917,-6.352700323157514
48357,Ochiltree,"Ochiltree County, TX",48,9836,917.627,-3.380692014071478,-2.3486171102898723
48359,Oldham,"Oldham County, TX",48,2112,1500.533,-4.866353094648015,-3.1413854336707288
48363,Palo Pinto,"Palo Pinto County, TX",48,29189,951.791,-1.4699541944311725,-5.965627293086945
48365,Panola,"Panola County, TX",48,23194,801.749,1.8908400766004698,-6.566842471202355
48367,Parker,"Parker County, TX",48,142878,903.478,-1.0446879197216115,-5.950206262939327
48375,Potter,"Potter County, TX",48,117415,908.37,-4.295199978071807,-3.1823228091792
48379,Rains,"Rains County, TX",48,12514,229.452,0.6362164434108648,-5.871770406623967
48381,Randall,"Randall County, TX",48,137713,911.544,-4.325006573692343,-3.61987025479001
48393,Roberts,"Roberts County, TX",48,854,924.058,-3.401063089772749,-2.791887316862637
48397,Rockwall,"Rockwall County, TX",48,104915,127.036,0.12349890793273655,-5.843471052664281
48399,Runnels,"Runnels County, TX",48,10264,1050.945,-2.8982479575026123,-6.839898528304771
48407,San Jacinto,"San Jacinto County, TX",48,28859,569.243,1.1800787897434815,-8.151164743574606
48413,Schleicher,"Schleicher County, TX",48,2793,1310.63,-3.4180123643207105,-7.747189598669657
48417,Shackelford,"Shackelford County, TX",48,3265,914.286,-2.34031194830957,-5.956995523069859
48429,Stephens,"Stephens County, TX",48,9366,896.719,-1.9076376865528961,-5.971349013314229
48431,Sterling,"Sterling County, TX",48,1291,923.451,-3.8056497976062538,-6.800679275504601
48437,Swisher,"Swisher County, TX",48,7397,890.159,-4.219915946962206,-4.065374136626337
48441,Taylor,"Taylor County, TX",48,138034,915.552,-2.8060023840483233,-6.373651628971244
48445,Terry,"Terry County, TX",48,12337,888.839,-4.800671386056779,-5.3928325196107565
48455,Trinity,"Trinity County, TX",48,14651,693.608,1.2010079862128242,-7.646697573025538
48461,Upton,"Upton County, TX",48,3657,1241.324,-4.673316573685424,-7.208763903193788
48467,Van Zandt,"Van Zandt County, TX",48,56590,842.557,0.6006313299125008,-6.178377795897858
48481,Wharton,"Wharton County, TX",48,41556,1086.15,0.268821092947636,-9.44297301811646
48483,Wheeler,"Wheeler County, TX",48,5056,914.523,-2.984985938923166,-3.2525344949811386
48491,Williamson,"Williamson County, TX",48,590551,1118.303,-0.9102741822800263,-8.075112980677162
48497,Wise,"Wise County, TX",48,69984,904.422,-0.911249557865195,-5.513973070368616
48503,Young,"Young County, TX",48,18010,914.468,-1.7710419084174274,-5.533525409723725
48507,Zavala,"Zavala County, TX",48,11840,1297.406,-2.8334319606738947,-9.78334513836385
49011,Davis,"Davis County, UT",49,355481,298.778,-11.539067528290834,3.3274619955927838
49021,Iron,"Iron County, UT",49,54839,3296.681,-12.979139596145885,0.37594326889069896
47183,Weakley,"Weakley County, TN",47,33328,580.364,6.2722818520655865,-2.203890005450423
47185,White,"White County, TN",47,27345,376.673,8.907554408615646,-2.3321153776694192
48003,Andrews,"Andrews County, TX",48,18705,1500.713,-5.11239231777859,-6.243157788949264
48009,Archer,"Archer County, TX",48,8553,903.11,-1.7583973297961886,-5.093595534557475
48011,Armstrong,"Armstrong County, TX",48,1887,909.109,-3.88732572977343,-3.6465567836071915
48013,Atascosa,"Atascosa County, TX",48,51153,1219.544,-1.7515453847239502,-9.79201919541925
48017,Bailey,"Bailey County, TX",48,7000,826.797,-5.1461555388795786,-4.469272266308536
48023,Baylor,"Baylor County, TX",48,3509,867.482,-2.192939118156693,-5.079300286238036
48027,Bell,"Bell County, TX",48,362924,1051.016,-0.798827760492437,-7.690244134782459
48031,Blanco,"Blanco County, TX",48,11931,709.251,-1.6055370402450653,-8.43963302056062
48037,Bowie,"Bowie County, TX",48,93245,885.006,1.7695929157620007,-5.2830629739898365
48047,Brooks,"Brooks County, TX",48,7093,943.364,-1.5241856942821803,-11.621151044540037
48059,Callahan,"Callahan County, TX",48,13943,899.372,-2.372023196656383,-6.394298809272165
48063,Camp,"Camp County, TX",48,13094,195.826,1.3147224192751323,-5.763177181190104
48065,Carson,"Carson County, TX",48,5926,920.22,-3.8597853341309003,-3.2057453569740946
48069,Castro,"Castro County, TX",48,7530,894.434,-4.649566932869001,-4.038413760335352
48075,Childress,"Childress County, TX",48,7306,696.405,-2.973719258401775,-4.131450181994532
48079,Cochran,"Cochran County, TX",48,2853,775.15,-5.178566229984586,-4.9343282708336424
48081,Coke,"Coke County, TX",48,3387,911.47,-3.363002352499413,-6.761206890083622
48087,Collingsworth,"Collingsworth County, TX",48,2920,918.441,-3.0048103759609828,-3.691371526307788
48093,Comanche,"Comanche County, TX",48,13635,937.754,-1.6967658363816045,-6.763866374351869
48099,Coryell,"Coryell County, TX",48,75951,1052.066,-1.0663927057393352,-7.334183792721939
48101,Cottle,"Cottle County, TX",48,1398,900.563,-3.0521232195714476,-4.582224529120636
48107,Crosby,"Crosby County, TX",48,5737,900.198,-3.916571228647123,-5.0044520857773565
48111,Dallam,"Dallam County, TX",48,7287,1503.259,-4.8046593783854945,-2.2629728199618415
48115,Dawson,"Dawson County, TX",48,12728,900.306,-4.506073574623207,-5.844790429695405
48121,Denton,"Denton County, TX",48,887207,878.432,-0.4642507601914755,-5.530830277042183
48125,Dickens,"Dickens County, TX",48,2211,901.724,-3.4861474035644866,-5.0253456509663845
48131,Duval,"Duval County, TX",48,11157,1793.481,-1.7673941829547488,-10.980764711927991
48143,Erath,"Erath County, TX",48,42698,1083.071,-1.4022160215063946,-6.484243040767221
48145,Falls,"Falls County, TX",48,17297,765.483,-0.3339293065727264,-7.48124704657777
48149,Fayette,"Fayette County, TX",48,25346,950.008,-0.33383007170074264,-8.847758125964837
48159,Franklin,"Franklin County, TX",48,10725,284.391,1.11336280547611,-5.564307330520055
48163,Frio,"Frio County, TX",48,20306,1133.5,-2.2614964555790893,-9.802326901948978
48171,Gillespie,"Gillespie County, TX",48,26988,1058.214,-2.075185895533213,-8.374965774370239
53035,Kitsap,"Kitsap County, WA",53,271473,394.941,-17.40595693084293,11.394928892907355
53045,Mason,"Mason County, WA",53,66768,959.417,-17.81402601127907,11.243447909690573
53059,Skamania,"Skamania County, WA",53,12083,1655.677,-17.336032782339984,9.75759750603022
53069,Wahkiakum,"Wahkiakum County, WA",53,4488,263.375,-18.267948074002934,10.298440233430075
54001,Barbour,"Barbour County, WV",54,16441,341.059,12.695429882803701,1.4667231419745586
54013,Calhoun,"Calhoun County, WV",54,7109,279.249,11.896727174170975,1.0401703008668874
54021,Gilmer,"Gilmer County, WV",54,7823,338.503,12.082770752582054,1.1529717189378965
54033,Harrison,"Harrison County, WV",54,67256,416.008,12.386033090871393,1.5689929609160165
54041,Lewis,"Lewis County, WV",54,15907,384.895,12.341030366915595,1.2670671504489377
54047,McDowell,"McDowell County, WV",54,17624,533.456,11.710410525445903,-0.4862036913597537
54061,Monongalia,"Monongalia County, WV",54,105612,360.062,12.580295906158483,1.9562817525215987
54067,Nicholas,"Nicholas County, WV",54,24496,646.824,12.227841281241176,0.528772882028131
54089,Summers,"Summers County, WV",54,12573,360.46,12.284239679472158,-0.11176247238400851
54101,Webster,"Webster County, WV",54,8114,553.468,12.483956629956067,0.7782663549965951
54105,Wirt,"Wirt County, WV",54,5821,232.509,11.670388369249945,1.1878538190869128
55001,Adams,"Adams County, WI",55,20220,645.646,4.926749086105994,5.445906887696142
55005,Barron,"Barron County, WI",55,45244,862.711,3.3761107482413903,6.812414033189672
55015,Calumet,"Calumet County, WI",55,50089,318.236,6.0285109189905235,5.639067125150647
55017,Chippewa,"Chippewa County, WI",55,64658,1008.373,3.792001044010261,6.479388624125898
55025,Dane,"Dane County, WI",55,546695,1197.239,5.242252404823074,4.562394949598122
55027,Dodge,"Dodge County, WI",55,87839,875.625,5.730495436765658,4.947726513282549
55033,Dunn,"Dunn County, WI",55,45368,850.105,3.3629424013948963,6.336997867372519
55035,Eau Claire,"Eau Claire County, WI",55,104646,637.983,3.804676786463547,6.138649223167298
55039,Fond du Lac,"Fond du Lac County, WI",55,103403,719.553,5.861110138340154,5.2969344403972745
55045,Green,"Green County, WI",55,36960,583.957,5.134898546758266,4.165507915167962
55047,Green Lake,"Green Lake County, WI",55,18913,349.437,5.458780657592958,5.313114810599965
55053,Jackson,"Jackson County, WI",55,20643,987.72,4.167851318772064,5.750238138097695
55065,Lafayette,"Lafayette County, WI",55,16665,633.588,4.749941884476863,4.120944789866501
55067,Langlade,"Langlade County, WI",55,19189,870.64,5.332783999355078,6.765131024689617
55073,Marathon,"Marathon County, WI",55,135692,1544.983,4.874710709530504,6.3706607468692065
55075,Marinette,"Marinette County, WI",55,40350,1399.347,6.051577905242316,6.9409816544871
55081,Monroe,"Monroe County, WI",55,46253,900.776,4.322369807275927,5.385101377942629
55085,Oneida,"Oneida County, WI",55,35595,1112.97,4.987488470811345,7.182020083719774
55097,Portage,"Portage County, WI",55,70772,800.679,5.085142858105517,5.962726185038535
55099,Price,"Price County, WI",55,13351,1254.376,4.403035492381667,7.119648040694251
55103,Richland,"Richland County, WI",55,17252,586.151,4.4904039300211425,4.824220808516857
55107,Rusk,"Rusk County, WI",55,14178,913.585,3.874590746648551,6.8872745253695715
55113,Sawyer,"Sawyer County, WI",55,16558,1257.305,3.846242932569993,7.287658454511312
55127,Walworth,"Walworth County, WI",55,103868,555.127,5.9087481927790835,4.210269457233457
55131,Washington,"Washington County, WI",55,136034,430.703,6.077846056550459,4.927745370445137
55137,Waushara,"Waushara County, WI",55,24443,626.153,5.294353396894264,5.615014858844112
56005,Campbell,"Campbell County, WY",56,46341,4802.709,-6.343316691674978,5.9162274276509565
56015,Goshen,"Goshen County, WY",56,13211,2225.391,-5.68444833968563,3.682510584504011
56025,Natrona,"Natrona County, WY",56,79858,5340.352,-7.377362691021695,4.734927889639935
56031,Platte,"Platte County, WY",56,8393,2084.208,-6.130019407071474,3.768790024571185
56041,Uinta,"Uinta County, WY",56,20226,2081.264,-10.33791918126485,3.435994015216757
56045,Weston,"Weston County, WY",56,6927,2398.089,-5.6829417857971,5.4470935533711655
72007,Aguas Buenas,"Aguas Buenas County, PR",72,28659,30.085,19.93225634802074,-12.483078990464916
72009,Aibonito,"Aibonito County, PR",72,25900,31.311,19.802047291661793,-12.599962613421516
72015,Arroyo,"Arroyo County, PR",72,19566,15.008,19.999848083583053,-12.729898268484487
49027,Millard,"Millard County, UT",49,13188,6572.425,-12.615087706196723,1.5556020072328196
49031,Piute,"Piute County, UT",49,1479,757.791,-12.004305576337757,0.6922104861421395
49039,Sanpete,"Sanpete County, UT",49,30939,1590.152,-11.411021922715596,1.6537382964161589
49053,Washington,"Washington County, UT",49,177556,2426.358,-13.251929594352097,-0.16795754643784308
50003,Bennington,"Bennington County, VT",50,35470,674.98,16.954653631788467,6.353020335122628
50009,Essex,"Essex County, VT",50,6163,663.598,17.481627380743475,8.223448700632396
50015,Lamoille,"Lamoille County, VT",50,25362,458.797,16.88966244635126,7.949170906676178
50023,Washington,"Washington County, VT",50,58409,687.233,16.988642746343178,7.633437824391369
51003,Albemarle,"Albemarle County, VA",51,109330,720.698,13.993381817137406,0.5538907733129599
51013,Arlington,"Arlington County, VA",51,236842,25.974,14.938495868436622,1.623757156651409
51025,Brunswick,"Brunswick County, VA",51,16231,566.173,14.770658916177931,-0.5861181773113238
51035,Carroll,"Carroll County, VA",51,29791,474.69,12.53038352434925,-1.0179815020330651
51043,Clarke,"Clarke County, VA",51,14619,176.177,14.217500597445122,1.720800543674253
51049,Cumberland,"Cumberland County, VA",51,9932,297.461,14.330030438058401,0.09562341330116841
51063,Floyd,"Floyd County, VA",51,15749,380.42,12.788541983475888,-0.7703055443104605
51075,Goochland,"Goochland County, VA",51,23753,281.415,14.542799993849476,0.3543829896787525
51081,Greensville,"Greensville County, VA",51,11336,295.226,15.022997626394597,-0.685189925890146
51097,King and Queen,"King and Queen County, VA",51,7025,315.138,15.328057170610217,0.5064280271051175
51109,Louisa,"Louisa County, VA",51,37591,496.3,14.45897915696606,0.6016967615246759
51121,Montgomery,"Montgomery County, VA",51,98535,387.014,12.726867085630063,-0.5332311516297615
51127,New Kent,"New Kent County, VA",51,23091,209.729,15.292665498246592,0.27947838785659923
51135,Nottoway,"Nottoway County, VA",51,15232,314.392,14.549529480282814,-0.23961174057400586
51145,Powhatan,"Powhatan County, VA",51,29652,260.221,14.57646038540439,0.18387952590355397
51159,Richmond,"Richmond County, VA",51,9023,191.492,15.409161314872803,0.754111088747012
51169,Scott,"Scott County, VA",51,21566,535.53,11.06580822200571,-1.2581946520266218
51181,Surry,"Surry County, VA",51,6422,278.949,15.448020513628338,-0.09253700215637164
51187,Warren,"Warren County, VA",51,40164,213.465,14.096977738086746,1.4882994147660775
51197,Wythe,"Wythe County, VA",51,28684,461.824,12.23134284955938,-0.8765481505466017
51515,Bedford,"Bedford County, VA",51,NaN,6.878,13.377640422535265,-0.2543166966663495
51530,Buena Vista,"Buena Vista, VA",51,6478,6.704,13.433422697708355,0.1710210217260856
51570,Colonial Heights,"Colonial Heights, VA",51,17370,7.52,15.03523714566432,-0.025845684443634404
51595,Emporia,"Emporia, VA",51,5346,6.894,15.037042741820805,-0.6034358912734097
51610,Falls Church,"Falls Church, VA",51,14617,1.999,,
51640,Galax,"Galax, VA",51,6347,8.24,12.402234215718781,-1.0944533101076912
51660,Harrisonburg,"Harrisonburg, VA",51,53016,17.418,13.677566374897616,0.9229839372270655
51683,Manassas,"Manassas, VA",51,41085,9.881,14.677354636707289,1.4393868371355993
51690,Martinsville,"Martinsville, VA",51,12554,10.956,13.215556188480043,-0.9464912196848981
51720,Norton,"Norton, VA",51,3981,7.481,11.013197567096295,-1.051073608826206
51740,Portsmouth,"Portsmouth, VA",51,94398,33.653,15.92398878429444,-0.26725129556455385
51770,Roanoke,"Roanoke, VA",51,99143,42.562,13.04469039753507,-0.3737424201113641
51820,Waynesboro,"Waynesboro, VA",51,22630,15.039,13.723484887988555,0.5509629427928466
51830,Williamsburg,"Williamsburg, VA",51,14954,9.022,15.568687142671607,0.09195918863862182
53013,Columbia,"Columbia County, WA",53,3985,868.629,-14.573803070179558,9.337550687805034
53023,Garfield,"Garfield County, WA",53,2225,710.686,-14.299386031230773,9.409118321084618
04019,Pima,"Pima County, AZ",04,1047279,9187.036,-12.784677205141989,-5.545270905546363
04021,Pinal,"Pinal County, AZ",04,462789,5365.612,-12.284491043136192,-4.810217807902827
04025,Yavapai,"Yavapai County, AZ",04,235099,8123.499,-12.983163102907938,-2.965042993586849
04027,Yuma,"Yuma County, AZ",04,213787,5513.992,-14.414236389956345,-4.573455668381093
05001,Arkansas,"Arkansas County, AR",05,17486,988.77,4.252682368573295,-4.354049530887726
05003,Ashley,"Ashley County, AR",05,19657,925.349,3.9810950788797212,-5.472486701564129
05007,Benton,"Benton County, AR",05,279141,847.357,1.8562897989125378,-2.372427277371392
05009,Boone,"Boone County, AR",05,37432,590.231,2.7848786610684106,-2.3805610098585106
05011,Bradley,"Bradley County, AR",05,10763,649.231,3.643142609927011,-5.210490672736167
05013,Calhoun,"Calhoun County, AR",05,5189,628.581,3.357505983211133,-5.12962682021852
05015,Carroll,"Carroll County, AR",05,28380,630.087,2.4286876940262454,-2.3573948739616912
05017,Chicot,"Chicot County, AR",05,10118,644.304,4.371255835922897,-5.377688609057274
05019,Clark,"Clark County, AR",05,22320,866.074,2.785316035628435,-4.6535721827781735
05021,Clay,"Clay County, AR",05,14551,639.465,4.913815565405922,-2.224159585554075
05029,Conway,"Conway County, AR",05,20846,552.25,3.1342954399384397,-3.423476899096934
05031,Craighead,"Craighead County, AR",05,110332,707.206,4.7739069038040505,-2.774690384712809
05033,Crawford,"Crawford County, AR",05,63257,593.094,1.878683907710148,-3.128454737628048
05035,Crittenden,"Crittenden County, AR",05,47955,609.76,5.070316686353298,-3.3857452521838707
72017,Barceloneta,"Barceloneta County, PR",72,24816,18.693,19.521207440151123,-12.29246784087304
72019,Barranquitas,"Barranquitas County, PR",72,30318,34.253,19.75899790567848,-12.531075752566712
72021,Bayamn,"Bayamn County, PR",72,208116,44.324,19.893450534282337,-12.386901155915169
72023,Cabo Rojo,"Cabo Rojo County, PR",72,50914,70.374,18.955093464804097,-12.685541555800816
72027,Camuy,"Camuy County, PR",72,35159,46.355,19.23644747882039,-12.317771312982751
72039,Ciales,"Ciales County, PR",72,18782,66.529,19.562770901538332,-12.445587317221015
72043,Coamo,"Coamo County, PR",72,40512,78.012,19.710939107786615,-12.632903007691018
72051,Dorado,"Dorado County, PR",72,38165,23.089,19.788941914424953,-12.30157833353442
72054,Florida,"Florida County, PR",72,12680,15.209,19.521361757900912,-12.363051255866779
72063,Gurabo,"Gurabo County, PR",72,45369,27.887,20.07303013083917,-12.468082959635195
72069,Humacao,"Humacao County, PR",72,58466,44.755,20.233450038242086,-12.586342930365262
72077,Juncos,"Juncos County, PR",72,40290,26.489,20.139946858207114,-12.509978141918369
72085,Las Piedras,"Las Piedras County, PR",72,38675,33.88,20.177597848576113,-12.54495070391429
72089,Luquillo,"Luquillo County, PR",72,20068,25.811,20.3146687501405,-12.393075704446682
72095,Maunabo,"Maunabo County, PR",72,12225,21.066,20.127666280456534,-12.710510628364153
72105,Naranjito,"Naranjito County, PR",72,30402,27.401,19.813457016762083,-12.446315170217632
72109,Patillas,"Patillas County, PR",72,19277,46.699,20.041593521973155,-12.696969197286228
72117,Rincn,"Rincn County, PR",72,15200,14.288,18.883428192096037,-12.397645421199647
72121,Sabana Grande,"Sabana Grande County, PR",72,25265,35.833,19.156309889034237,-12.644911686552046
72129,San Lorenzo,"San Lorenzo County, PR",72,41058,53.108,20.07569701910848,-12.58374713735694
72133,Santa Isabel,"Santa Isabel County, PR",72,23263,34.023,19.68379932658847,-12.733349456498406
72145,Vega Baja,"Vega Baja County, PR",72,59641,45.856,19.675532788577907,-12.309543224878713
72149,Villalba,"Villalba County, PR",72,26073,35.637,19.603904405265794,-12.602703602231358
02240,Southeast Fairbanks,"Southeast Fairbanks County, AK",02,6893,24768.808,-15.571294653379468,-9.459535501096491
02282,Yakutat,"Yakutat County, AK",02,579,7649.457,-14.849744332220341,-10.723144443473121
04001,Apache,"Apache County, AZ",04,71887,11197.521,-10.399920481411597,-2.574384111545783
04005,Coconino,"Coconino County, AZ",04,143476,18618.885,-12.145996083844352,-1.8443388428444505
04007,Gila,"Gila County, AZ",04,54018,4757.933,-11.70580986471174,-3.991997142865239
04011,Greenlee,"Greenlee County, AZ",04,9498,1843.126,-10.504918677352153,-4.764840496131512
04013,Maricopa,"Maricopa County, AZ",04,4485414,9200.143,-13.152303765567012,-4.212489377810982
04017,Navajo,"Navajo County, AZ",04,110924,9950.422,-11.064218925585488,-2.4707093364898296
05101,Newton,"Newton County, AR",05,7753,820.896,2.6959452318380133,-2.774559879777896
05103,Ouachita,"Ouachita County, AR",05,23382,732.783,3.0425537228120674,-5.105483185393952
05105,Perry,"Perry County, AR",05,10455,551.402,2.9568670666511645,-3.746712385874339
05107,Phillips,"Phillips County, AR",05,17782,695.663,4.676625990478776,-4.194961996020018
05113,Polk,"Polk County, AR",05,19964,857.679,1.9125644934015735,-4.2375428475762105
05115,Pope,"Pope County, AR",05,64072,812.548,2.858157038419691,-3.246202831335264
05117,Prairie,"Prairie County, AR",05,8062,647.958,4.08270578018473,-3.820745182089146
05119,Pulaski,"Pulaski County, AR",05,391911,759.763,3.4673638803160123,-3.9069810441865123
05121,Randolph,"Randolph County, AR",05,17958,652.191,4.429756915204379,-2.2778492905748773
05125,Saline,"Saline County, AR",05,122437,723.604,3.1755138348862593,-4.041565358356494
05127,Scott,"Scott County, AR",05,10281,892.32,2.039894688169214,-3.858044085940164
05131,Sebastian,"Sebastian County, AR",05,127827,531.911,1.8621418705587496,-3.5211186059969313
05133,Sevier,"Sevier County, AR",05,17007,565.126,1.910116973731833,-4.728569857897405
05137,Stone,"Stone County, AR",05,12506,606.405,3.549241012788412,-2.8053654570162765
08051,Gunnison,"Gunnison County, CO",08,17462,3239.1,-8.048015663267872,0.4591657538961682
08055,Huerfano,"Huerfano County, CO",08,6897,1591.001,-6.548344364577972,-0.6954015642282304
08057,Jackson,"Jackson County, CO",08,1392,1613.723,-7.298847010697548,2.4044762567633695
08059,Jefferson,"Jefferson County, CO",08,582881,764.208,-6.587137261036725,1.2368562478790517
08063,Kit Carson,"Kit Carson County, CO",08,7097,2160.822,-4.592678151862652,0.785430151068879
08065,Lake,"Lake County, CO",08,8127,376.911,-7.461322393844921,0.936855974869974
08067,La Plata,"La Plata County, CO",08,56221,1692.078,-8.844175402695656,-0.84813116311081
08069,Larimer,"Larimer County, CO",08,356899,2596.002,-6.639510660833391,2.3362296966087723
08071,Las Animas,"Las Animas County, CO",08,14506,4772.672,-5.860348388651562,-1.1307020112545731
08075,Logan,"Logan County, CO",08,22409,1838.547,-4.873846754046277,2.2413763655478847
08077,Mesa,"Mesa County, CO",08,154210,3328.974,-9.103196004685458,0.9483274927208929
08081,Moffat,"Moffat County, CO",08,13283,4743.29,-8.697660526376577,2.5234308151371323
05039,Dallas,"Dallas County, AR",05,7009,667.386,3.216793373559637,-4.721372313229513
05041,Desha,"Desha County, AR",05,11361,768.152,4.375342829650413,-4.808382743214777
05045,Faulkner,"Faulkner County, AR",05,126007,647.884,3.437376527088089,-3.527388928216544
05047,Franklin,"Franklin County, AR",05,17715,608.857,2.164901991503555,-3.1988888307781407
05049,Fulton,"Fulton County, AR",05,12477,618.194,3.797717413721522,-2.268121309076024
05053,Grant,"Grant County, AR",05,18265,631.809,3.394601898439063,-4.392994162163522
05055,Greene,"Greene County, AR",05,45325,577.699,4.814971720650699,-2.4836434839092782
05057,Hempstead,"Hempstead County, AR",05,21532,727.52,2.388721605523239,-4.981550918786676
05061,Howard,"Howard County, AR",05,13202,588.554,2.1129171635829116,-4.633048824267091
05063,Independence,"Independence County, AR",05,37825,763.953,4.025905398423913,-2.903870323534952
05065,Izard,"Izard County, AR",05,13629,580.577,3.734340291215933,-2.5604084473284257
05069,Jefferson,"Jefferson County, AR",05,66824,870.746,3.7992181324039405,-4.398407474724644
05071,Johnson,"Johnson County, AR",05,26578,659.804,2.5111699641937153,-3.1322574669706005
05073,Lafayette,"Lafayette County, AR",05,6624,528.268,2.452157072597548,-5.475355533747858
05075,Lawrence,"Lawrence County, AR",05,16406,587.614,4.381627207709578,-2.5842236410593076
05077,Lee,"Lee County, AR",05,8857,602.621,4.711446390726158,-3.837784705203258
05083,Logan,"Logan County, AR",05,21466,708.125,2.312858960864188,-3.4946946098833007
05085,Lonoke,"Lonoke County, AR",05,73309,770.728,3.8129889997043716,-3.909517270579229
05089,Marion,"Marion County, AR",05,16694,597.009,3.111424154193214,-2.408572303137768
05091,Miller,"Miller County, AR",05,43257,625.578,2.2133079596297573,-5.410393917173987
05093,Mississippi,"Mississippi County, AR",05,40651,900.574,5.241066738900691,-2.816245832425012
05095,Monroe,"Monroe County, AR",05,6701,607.122,4.373766584042345,-3.95933618929159
05099,Nevada,"Nevada County, AR",05,8252,617.837,2.688838182007195,-5.045453244202499
09001,Fairfield,"Fairfield County, CT",09,943332,624.89,17.1632828879019,4.5846396909729
09003,Hartford,"Hartford County, CT",09,891720,735.097,17.50868094195964,5.221268712040437
09005,Litchfield,"Litchfield County, CT",09,180333,920.56,17.14335665432509,5.117330953126426
09007,Middlesex,"Middlesex County, CT",09,162436,369.301,17.735147903228846,4.922510373029159
09009,New Haven,"New Haven County, CT",09,854757,604.506,17.45965675572231,4.800024954690582
09011,New London,"New London County, CT",09,265206,664.878,18.041600675449377,5.025376442679825
10001,Kent,"Kent County, DE",10,180786,586.179,16.050879449658783,2.0701218097686622
10003,New Castle,"New Castle County, DE",10,558753,426.286,15.884548168919215,2.5444046212576272
10005,Sussex,"Sussex County, DE",10,234225,936.079,16.277420844715866,1.6799998367365145
11001,District of Columbia,"District of Columbia County, DC",11,705749,61.048,14.998273187722173,1.6603632817160243
12001,Alachua,"Alachua County, FL",12,269043,875.02,12.271608712682637,-8.211672759126273
12003,Baker,"Baker County, FL",12,29210,585.231,12.239946895419877,-7.558147990229653
12007,Bradford,"Bradford County, FL",12,28201,293.962,12.394334997809176,-7.918784103054183
12009,Brevard,"Brevard County, FL",12,601942,1015.664,13.888124276469291,-9.346648611928877
12011,Broward,"Broward County, FL",12,1952778,1209.785,14.44725313032121,-11.378026928727074
12015,Charlotte,"Charlotte County, FL",12,188910,680.279,13.062176685204266,-10.848217711534021
12017,Citrus,"Citrus County, FL",12,149657,581.696,12.284543575057759,-9.034187149011677
12021,Collier,"Collier County, FL",12,384902,1998.324,13.686386727507742,-11.531646981768157
08083,Montezuma,"Montezuma County, CO",08,26183,2029.527,-9.425778853753133,-0.7197497403051789
08087,Morgan,"Morgan County, CO",08,29068,1280.433,-5.436357688334535,1.8183045466795595
08089,Otero,"Otero County, CO",08,18278,1261.961,-5.5594390896529555,-0.5622824867817782
08091,Ouray,"Ouray County, CO",08,4952,541.593,-8.677936125085303,0.01521855902607222
08093,Park,"Park County, CO",08,18845,2193.846,-6.989873172286946,0.802985206819145
08097,Pitkin,"Pitkin County, CO",08,17767,970.697,-7.895094189613991,1.0018918024303907
08099,Prowers,"Prowers County, CO",08,12172,1638.395,-4.524499279721708,-0.5856995714329755
08103,Rio Blanco,"Rio Blanco County, CO",08,6324,3220.934,-8.787865208594246,1.8865334889906682
08107,Routt,"Routt County, CO",08,25638,2362.026,-7.804380329133415,2.277437257538838
08109,Saguache,"Saguache County, CO",08,6824,3168.525,-7.5338495700586225,-0.19365077619684942
08111,San Juan,"San Juan County, CO",08,728,387.488,-8.654061829232397,-0.38550835740850214
08113,San Miguel,"San Miguel County, CO",08,8179,1286.611,-9.18926568151714,-0.07271573515648402
08117,Summit,"Summit County, CO",08,31011,608.358,-7.2393430484131445,1.3506206841761097
08119,Teller,"Teller County, CO",08,25388,557.055,-6.58860758239554,0.52255847094909
08123,Weld,"Weld County, CO",08,324492,3987.238,-5.850691175859339,2.1486834678491618
08125,Yuma,"Yuma County, CO",08,10019,2364.405,-4.409198728605623,1.4777785177381968
12086,Miami-Dade,"Miami-Dade County, FL",12,2716940,1897.716,14.494908598403766,-11.909120391805686
12089,Nassau,"Nassau County, FL",12,88625,648.639,12.61077129598992,-7.223238078434412
12091,Okaloosa,"Okaloosa County, FL",12,210738,930.247,8.521239363134267,-7.649352917754056
12093,Okeechobee,"Okeechobee County, FL",12,42168,768.908,13.89435016174434,-10.246992675798088
12095,Orange,"Orange County, FL",12,1393452,903.429,13.339085077769612,-9.211615936914253
12097,Osceola,"Osceola County, FL",12,375751,1327.453,13.560387797279262,-9.627466111620818
12101,Pasco,"Pasco County, FL",12,553947,746.886,12.436328005234039,-9.549108415234398
12103,Pinellas,"Pinellas County, FL",12,974996,273.799,12.203977072600381,-9.969428723108694
12105,Polk,"Polk County, FL",12,724777,1797.837,13.098017856681986,-9.810920273141987
12109,St. Johns,"St. Johns County, FL",12,264672,600.655,13.025865876501332,-7.873473655447356
12111,St. Lucie,"St. Lucie County, FL",12,328297,571.926,14.263617701934042,-10.19638742998597
12113,Santa Rosa,"Santa Rosa County, FL",12,184313,1011.605,8.15397904494472,-7.675144595850666
12115,Sarasota,"Sarasota County, FL",12,433742,555.868,12.650293392081288,-10.633347819842323
12117,Seminole,"Seminole County, FL",12,471826,309.221,13.383235809412396,-9.00269391465637
12119,Sumter,"Sumter County, FL",12,132420,546.933,12.650245558271342,-9.12517144045219
12121,Suwannee,"Suwannee County, FL",12,44417,688.552,11.656141573431839,-7.777420067954556
12125,Union,"Union County, FL",12,15237,243.556,12.206427324391367,-7.851144680938048
12127,Volusia,"Volusia County, FL",12,553284,1101.032,13.377002938757633,-8.662386588233842
12129,Wakulla,"Wakulla County, FL",12,33739,606.419,10.45302465672133,-7.958827279724975
12131,Walton,"Walton County, FL",12,74071,1037.625,8.88621711609369,-7.659882304218301
13001,Appling,"Appling County, GA",13,18386,507.081,12.032659819814114,-6.161888452923972
13003,Atkinson,"Atkinson County, GA",13,8165,339.382,11.598612098201414,-6.677971898795009
12023,Columbia,"Columbia County, FL",12,71686,797.574,11.967497107548622,-7.705169123074204
12029,Dixie,"Dixie County, FL",12,16826,705.053,11.59160113573442,-8.372758714969693
12031,Duval,"Duval County, FL",12,957755,762.192,12.763470355516358,-7.481018489814281
12035,Flagler,"Flagler County, FL",12,115081,485.461,13.201403392480788,-8.2868163645249
12037,Franklin,"Franklin County, FL",12,12125,534.725,10.130891009061903,-8.305299581496204
12039,Gadsden,"Gadsden County, FL",12,45660,516.332,10.22094756277187,-7.5750808164918295
12043,Glades,"Glades County, FL",12,13811,806.009,13.695264190116509,-10.70362669405966
12045,Gulf,"Gulf County, FL",12,13639,564.012,9.772457296343369,-8.252387381771543
12047,Hamilton,"Hamilton County, FL",12,14428,513.79,11.651893364206058,-7.475593007326154
12051,Hendry,"Hendry County, FL",12,42022,1152.75,13.779822028676762,-11.08820713481608
12053,Hernando,"Hernando County, FL",12,193920,472.539,12.371818049149327,-9.315308694703127
12057,Hillsborough,"Hillsborough County, FL",12,1471968,1020.214,12.563760421001358,-9.907686875399278
12059,Holmes,"Holmes County, FL",12,19617,478.777,9.165501255446626,-7.405961374009131
12061,Indian River,"Indian River County, FL",12,159923,502.872,14.094327664811384,-9.909245135267719
12063,Jackson,"Jackson County, FL",12,46414,917.76,9.683063231593906,-7.421682520159571
12065,Jefferson,"Jefferson County, FL",12,14246,598.095,10.851605775735539,-7.640270652675537
12069,Lake,"Lake County, FL",12,367118,938.381,12.963204293323246,-9.023164441746365
12071,Lee,"Lee County, FL",12,770577,784.513,13.134876766150631,-11.161960072626078
12073,Leon,"Leon County, FL",12,293582,666.852,10.521956583934706,-7.6606245223145235
12075,Levy,"Levy County, FL",12,41503,1118.206,11.990462429151075,-8.606228963884869
12079,Madison,"Madison County, FL",12,18493,695.948,11.213565877150408,-7.586475605247231
