{"type":"FeatureCollection","features":[{"type":"Feature","geometry":{"type":"Point","coordinates":[-15.707827062813598,-10.343262810086836]},"properties":{"NAME":"Valdez-Cordova","GEO_ID":"0500000US02261","STATE":"02","COUNTY":"261","id":"02261","Population":9202}},{"type":"Feature","geometry":{"type":"Point","coordinates":[-18.751015290079515,-10.077829051748006]},"properties":{"NAME":"Kusilvak","GEO_ID":"0500000US02158","STATE":"02","COUNTY":"158","id":"02158","Population":0}},{"type":"Feature","geometry":{"type":"Point","coordinates":[-13.049034693764431,-11.52061015570261]},"properties":{"NAME":"Wrangell","GEO_ID":"0500000US02275","STATE":"02","COUNTY":"275","id":"02275","Population":2502}},{"type":"Feature","geometry":{"type":"Point","coordinates":[-16.91015564069399,-9.023965976216312]},"properties":{"NAME":"Yukon-Koyukuk","GEO_ID":"0500000US02290","STATE":"02","COUNTY":"290","id":"02290","Population":5230}},{"type":"Feature","geometry":{"type":"Point","coordinates":[-11.11926701971863,-6.027626407790981]},"properties":{"NAME":"Cochise","GEO_ID":"0500000US04003","STATE":"04","COUNTY":"003","id":"04003","Population":125922}},{"type":"Feature","geometry":{"type":"Point","coordinates":[-11.078448322483762,-4.96821233366399]},"properties":{"NAME":"Graham","GEO_ID":"0500000US04009","STATE":"04","COUNTY":"009","id":"04009","Population":38837}},{"type":"Feature","geometry":{"type":"Point","coordinates":[-14.295816233778918,-3.6148295435241677]},"properties":{"NAME":"La Paz","GEO_ID":"0500000US04012","STATE":"04","COUNTY":"012","id":"04012","Population":21108}},{"type":"Feature","geometry":{"type":"Point","coordinates":[-13.748142973769712,-1.6994249996296689]},"properties":{"NAME":"Mohave","GEO_ID":"0500000US04015","STATE":"04","COUNTY":"015","id":"04015","Population":212181}},{"type":"Feature","geometry":{"type":"Point","coordinates":[-12.089776672227405,-6.238214054736814]},"properties":{"NAME":"Santa Cruz","GEO_ID":"0500000US04023","STATE":"04","COUNTY":"023","id":"04023","Population":46498}},{"type":"Feature","geometry":{"type":"Point","coordinates":[3.3888184464497737,-2.3813833462134344]},"properties":{"NAME":"Baxter","GEO_ID":"0500000US05005","STATE":"05","COUNTY":"005","id":"05005","Population":41932}},{"type":"Feature","geometry":{"type":"Point","coordinates":[3.667443944399337,-3.124736499846314]},"properties":{"NAME":"Cleburne","GEO_ID":"0500000US05023","STATE":"05","COUNTY":"023","id":"05023","Population":24919}},{"type":"Feature","geometry":{"type":"Point","coordinates":[3.605726900323176,-4.77842802229013]},"properties":{"NAME":"Cleveland","GEO_ID":"0500000US05025","STATE":"05","COUNTY":"025","id":"05025","Population":7956}},{"type":"Feature","geometry":{"type":"Point","coordinates":[2.7676939208867597,-5.493952563031434]},"properties":{"NAME":"Columbia","GEO_ID":"0500000US05027","STATE":"05","COUNTY":"027","id":"05027","Population":23457}},{"type":"Feature","geometry":{"type":"Point","coordinates":[4.6914590554979485,-3.320420164649001]},"properties":{"NAME":"Cross","GEO_ID":"0500000US05037","STATE":"05","COUNTY":"037","id":"05037","Population":16419}},{"type":"Feature","geometry":{"type":"Point","coordinates":[4.003156653822133,-5.071469439551778]},"properties":{"NAME":"Drew","GEO_ID":"0500000US05043","STATE":"05","COUNTY":"043","id":"05043","Population":18219}},{"type":"Feature","geometry":{"type":"Point","coordinates":[2.7908483753715663,-4.124565649592225]},"properties":{"NAME":"Garland","GEO_ID":"0500000US05051","STATE":"05","COUNTY":"051","id":"05051","Population":99386}},{"type":"Feature","geometry":{"type":"Point","coordinates":[2.966281696408776,-4.379792274300599]},"properties":{"NAME":"Hot Spring","GEO_ID":"0500000US05059","STATE":"05","COUNTY":"059","id":"05059","Population":33771}},{"type":"Feature","geometry":{"type":"Point","coordinates":[4.318413363832502,-3.034578148398466]},"properties":{"NAME":"Jackson","GEO_ID":"0500000US05067","STATE":"05","COUNTY":"067","id":"05067","Population":16719}},{"type":"Feature","geometry":{"type":"Point","coordinates":[1.9227978306163704,-5.026039951997923]},"properties":{"NAME":"Little River","GEO_ID":"0500000US05081","STATE":"05","COUNTY":"081","id":"05081","Population":12259}},{"type":"Feature","geometry":{"type":"Point","coordinates":[2.2870410452809726,-2.6938554554102985]},"properties":{"NAME":"Madison","GEO_ID":"0500000US05087","STATE":"05","COUNTY":"087","id":"05087","Population":16576}},{"type":"Feature","geometry":{"type":"Point","coordinates":[2.3758982897197254,-4.1747641131750735]},"properties":{"NAME":"Montgomery","GEO_ID":"0500000US05097","STATE":"05","COUNTY":"097","id":"05097","Population":8986}},{"type":"Feature","geometry":{"type":"Point","coordinates":[2.3879528615247683,-4.551765179616166]},"properties":{"NAME":"Pike","GEO_ID":"0500000US05109","STATE":"05","COUNTY":"109","id":"05109","Population":10718}},{"type":"Feature","geometry":{"type":"Point","coordinates":[4.763559681041291,-3.0344447786994757]},"properties":{"NAME":"Poinsett","GEO_ID":"0500000US05111","STATE":"05","COUNTY":"111","id":"05111","Population":23528}},{"type":"Feature","geometry":{"type":"Point","coordinates":[4.726243129571829,-3.594296713684322]},"properties":{"NAME":"St. Francis","GEO_ID":"0500000US05123","STATE":"05","COUNTY":"123","id":"05123","Population":24994}},{"type":"Feature","geometry":{"type":"Point","coordinates":[3.112260092566035,-2.7703203628451356]},"properties":{"NAME":"Searcy","GEO_ID":"0500000US05129","STATE":"05","COUNTY":"129","id":"05129","Population":7881}},{"type":"Feature","geometry":{"type":"Point","coordinates":[4.077827743034529,-2.478365898496474]},"properties":{"NAME":"Sharp","GEO_ID":"0500000US05135","STATE":"05","COUNTY":"135","id":"05135","Population":17442}},{"type":"Feature","geometry":{"type":"Point","coordinates":[3.293203400851557,-5.519630911812058]},"properties":{"NAME":"Union","GEO_ID":"0500000US05139","STATE":"05","COUNTY":"139","id":"05139","Population":38682}},{"type":"Feature","geometry":{"type":"Point","coordinates":[-8.355191299794889,-0.3637421805226293]},"properties":{"NAME":"Hinsdale","GEO_ID":"0500000US08053","STATE":"08","COUNTY":"053","id":"08053","Population":820}},{"type":"Feature","geometry":{"type":"Point","coordinates":[-4.7608737999889765,-0.08490451074870536]},"properties":{"NAME":"Kiowa","GEO_ID":"0500000US08061","STATE":"08","COUNTY":"061","id":"08061","Population":1406}},{"type":"Feature","geometry":{"type":"Point","coordinates":[-5.315218267458939,0.5172615673973413]},"properties":{"NAME":"Lincoln","GEO_ID":"0500000US08073","STATE":"08","COUNTY":"073","id":"08073","Population":5701}},{"type":"Feature","geometry":{"type":"Point","coordinates":[-8.080428097380942,-0.5514428046014443]},"properties":{"NAME":"Mineral","GEO_ID":"0500000US08079","STATE":"08","COUNTY":"079","id":"08079","Population":769}},{"type":"Feature","geometry":{"type":"Point","coordinates":[-9.031925141423903,0.3127432924624204]},"properties":{"NAME":"Montrose","GEO_ID":"0500000US08085","STATE":"08","COUNTY":"085","id":"08085","Population":42758}},{"type":"Feature","geometry":{"type":"Point","coordinates":[-4.318441699019492,2.0699044829436852]},"properties":{"NAME":"Phillips","GEO_ID":"0500000US08095","STATE":"08","COUNTY":"095","id":"08095","Population":4265}},{"type":"Feature","geometry":{"type":"Point","coordinates":[-6.15426456041823,-0.23622096308681365]},"properties":{"NAME":"Pueblo","GEO_ID":"0500000US08101","STATE":"08","COUNTY":"101","id":"08101","Population":168424}},{"type":"Feature","geometry":{"type":"Point","coordinates":[-7.668461371189247,-0.6855472236496939]},"properties":{"NAME":"Rio Grande","GEO_ID":"0500000US08105","STATE":"08","COUNTY":"105","id":"08105","Population":11267}},{"type":"Feature","geometry":{"type":"Point","coordinates":[-4.29545887653458,2.3531933170276815]},"properties":{"NAME":"Sedgwick","GEO_ID":"0500000US08115","STATE":"08","COUNTY":"115","id":"08115","Population":2248}},{"type":"Feature","geometry":{"type":"Point","coordinates":[-5.000108488832345,1.488165790795825]},"properties":{"NAME":"Washington","GEO_ID":"0500000US08121","STATE":"08","COUNTY":"121","id":"08121","Population":4908}},{"type":"Feature","geometry":{"type":"Point","coordinates":[17.78130276418414,5.339601462915506]},"properties":{"NAME":"Tolland","GEO_ID":"0500000US09013","STATE":"09","COUNTY":"013","id":"09013","Population":150721}},{"type":"Feature","geometry":{"type":"Point","coordinates":[18.03724378919823,5.380253465886338]},"properties":{"NAME":"Windham","GEO_ID":"0500000US09015","STATE":"09","COUNTY":"015","id":"09015","Population":116782}},{"type":"Feature","geometry":{"type":"Point","coordinates":[9.395926060398727,-7.983254120093946]},"properties":{"NAME":"Bay","GEO_ID":"0500000US12005","STATE":"12","COUNTY":"005","id":"12005","Population":174705}},{"type":"Feature","geometry":{"type":"Point","coordinates":[9.74327862337468,-7.804281197283279]},"properties":{"NAME":"Calhoun","GEO_ID":"0500000US12013","STATE":"12","COUNTY":"013","id":"12013","Population":14105}},{"type":"Feature","geometry":{"type":"Point","coordinates":[12.655629076436535,-7.847234247030013]},"properties":{"NAME":"Clay","GEO_ID":"0500000US12019","STATE":"12","COUNTY":"019","id":"12019","Population":219252}},{"type":"Feature","geometry":{"type":"Point","coordinates":[7.863748131936296,-7.733953593280927]},"properties":{"NAME":"Escambia","GEO_ID":"0500000US12033","STATE":"12","COUNTY":"033","id":"12033","Population":318316}},{"type":"Feature","geometry":{"type":"Point","coordinates":[11.88349158143734,-8.21547013959649]},"properties":{"NAME":"Gilchrist","GEO_ID":"0500000US12041","STATE":"12","COUNTY":"041","id":"12041","Population":18582}},{"type":"Feature","geometry":{"type":"Point","coordinates":[13.066254564515196,-10.267768371156318]},"properties":{"NAME":"Hardee","GEO_ID":"0500000US12049","STATE":"12","COUNTY":"049","id":"12049","Population":26937}},{"type":"Feature","geometry":{"type":"Point","coordinates":[13.502052851100126,-10.350574632187277]},"properties":{"NAME":"Highlands","GEO_ID":"0500000US12055","STATE":"12","COUNTY":"055","id":"12055","Population":106221}},{"type":"Feature","geometry":{"type":"Point","coordinates":[11.521166695726968,-8.004440789202956]},"properties":{"NAME":"Lafayette","GEO_ID":"0500000US12067","STATE":"12","COUNTY":"067","id":"12067","Population":8422}},{"type":"Feature","geometry":{"type":"Point","coordinates":[10.031325856383502,-7.935958209564608]},"properties":{"NAME":"Liberty","GEO_ID":"0500000US12077","STATE":"12","COUNTY":"077","id":"12077","Population":8354}},{"type":"Feature","geometry":{"type":"Point","coordinates":[12.625325244451101,-10.352941060645145]},"properties":{"NAME":"Manatee","GEO_ID":"0500000US12081","STATE":"12","COUNTY":"081","id":"12081","Population":403253}},{"type":"Feature","geometry":{"type":"Point","coordinates":[12.598503960422173,-8.628860494170064]},"properties":{"NAME":"Marion","GEO_ID":"0500000US12083","STATE":"12","COUNTY":"083","id":"12083","Population":365579}},{"type":"Feature","geometry":{"type":"Point","coordinates":[14.07312043857421,-12.054759436919339]},"properties":{"NAME":"Monroe","GEO_ID":"0500000US12087","STATE":"12","COUNTY":"087","id":"12087","Population":74228}},{"type":"Feature","geometry":{"type":"Point","coordinates":[14.386840025046132,-10.8988541148293]},"properties":{"NAME":"Palm Beach","GEO_ID":"0500000US12099","STATE":"12","COUNTY":"099","id":"12099","Population":1496770}},{"type":"Feature","geometry":{"type":"Point","coordinates":[12.808932555113968,-8.199136792533027]},"properties":{"NAME":"Putnam","GEO_ID":"0500000US12107","STATE":"12","COUNTY":"107","id":"12107","Population":74521}},{"type":"Feature","geometry":{"type":"Point","coordinates":[11.152091738459415,-7.992190164717743]},"properties":{"NAME":"Taylor","GEO_ID":"0500000US12123","STATE":"12","COUNTY":"123","id":"12123","Population":21569}},{"type":"Feature","geometry":{"type":"Point","coordinates":[9.32026088249738,-7.646149752949356]},"properties":{"NAME":"Washington","GEO_ID":"0500000US12133","STATE":"12","COUNTY":"133","id":"12133","Population":25473}},{"type":"Feature","geometry":{"type":"Point","coordinates":[11.047572996163177,-4.963641383673085]},"properties":{"NAME":"Baldwin","GEO_ID":"0500000US13009","STATE":"13","COUNTY":"009","id":"13009","Population":44890}},{"type":"Feature","geometry":{"type":"Point","coordinates":[11.30652381905605,-6.739003603183332]},"properties":{"NAME":"Berrien","GEO_ID":"0500000US13019","STATE":"13","COUNTY":"019","id":"13019","Population":19397}},{"type":"Feature","geometry":{"type":"Point","coordinates":[10.436696242644702,-4.823529658427961]},"properties":{"NAME":"Butts","GEO_ID":"0500000US13035","STATE":"13","COUNTY":"035","id":"13035","Population":24936}},{"type":"Feature","geometry":{"type":"Point","coordinates":[12.116338588866578,-5.487837790878744]},"properties":{"NAME":"Candler","GEO_ID":"0500000US13043","STATE":"13","COUNTY":"043","id":"13043","Population":10803}},{"type":"Feature","geometry":{"type":"Point","coordinates":[9.27693177674033,-3.329286830908724]},"properties":{"NAME":"Catoosa","GEO_ID":"0500000US13047","STATE":"13","COUNTY":"047","id":"13047","Population":67580}},{"type":"Feature","geometry":{"type":"Point","coordinates":[9.157961524786714,-3.7755345473021777]},"properties":{"NAME":"Chattooga","GEO_ID":"0500000US13055","STATE":"13","COUNTY":"055","id":"13055","Population":24789}},{"type":"Feature","geometry":{"type":"Point","coordinates":[10.862643941963716,-6.885268561666669]},"properties":{"NAME":"Colquitt","GEO_ID":"0500000US13071","STATE":"13","COUNTY":"071","id":"13071","Population":45600}},{"type":"Feature","geometry":{"type":"Point","coordinates":[11.153008644196373,-6.881754882520953]},"properties":{"NAME":"Cook","GEO_ID":"0500000US13075","STATE":"13","COUNTY":"075","id":"13075","Population":17270}},{"type":"Feature","geometry":{"type":"Point","coordinates":[10.769015245754098,-6.158546647226422]},"properties":{"NAME":"Crisp","GEO_ID":"0500000US13081","STATE":"13","COUNTY":"081","id":"13081","Population":22372}},{"type":"Feature","geometry":{"type":"Point","coordinates":[10.713237841250463,-5.929587012330184]},"properties":{"NAME":"Dooly","GEO_ID":"0500000US13093","STATE":"13","COUNTY":"093","id":"13093","Population":13390}},{"type":"Feature","geometry":{"type":"Point","coordinates":[11.668932725933102,-7.258702703261276]},"properties":{"NAME":"Echols","GEO_ID":"0500000US13101","STATE":"13","COUNTY":"101","id":"13101","Population":4006}},{"type":"Feature","geometry":{"type":"Point","coordinates":[12.307995827758969,-5.708999369513089]},"properties":{"NAME":"Evans","GEO_ID":"0500000US13109","STATE":"13","COUNTY":"109","id":"13109","Population":10654}},{"type":"Feature","geometry":{"type":"Point","coordinates":[10.889248829422193,-3.6622571266931505]},"properties":{"NAME":"Franklin","GEO_ID":"0500000US13119","STATE":"13","COUNTY":"119","id":"13119","Population":23349}},{"type":"Feature","geometry":{"type":"Point","coordinates":[3.2717215169694707,-3.0978540191745894]},"properties":{"NAME":"Van Buren","GEO_ID":"0500000US05141","STATE":"05","COUNTY":"141","id":"05141","Population":16545}},{"type":"Feature","geometry":{"type":"Point","coordinates":[1.8936870189366446,-2.7351347343448005]},"properties":{"NAME":"Washington","GEO_ID":"0500000US05143","STATE":"05","COUNTY":"143","id":"05143","Population":239187}},{"type":"Feature","geometry":{"type":"Point","coordinates":[4.317649122550566,-3.4511416765992964]},"properties":{"NAME":"Woodruff","GEO_ID":"0500000US05147","STATE":"05","COUNTY":"147","id":"05147","Population":6320}},{"type":"Feature","geometry":{"type":"Point","coordinates":[-19.42751841626073,3.241879201470986]},"properties":{"NAME":"Colusa","GEO_ID":"0500000US06011","STATE":"06","COUNTY":"011","id":"06011","Population":21547}},{"type":"Feature","geometry":{"type":"Point","coordinates":[-19.424311533352913,3.6822497887816077]},"properties":{"NAME":"Glenn","GEO_ID":"0500000US06021","STATE":"06","COUNTY":"021","id":"06021","Population":28393}},{"type":"Feature","geometry":{"type":"Point","coordinates":[-18.408788737481093,-0.2747333161069314]},"properties":{"NAME":"Kings","GEO_ID":"0500000US06031","STATE":"06","COUNTY":"031","id":"06031","Population":152940}},{"type":"Feature","geometry":{"type":"Point","coordinates":[-18.105067070522196,1.2128833260231044]},"properties":{"NAME":"Mariposa","GEO_ID":"0500000US06043","STATE":"06","COUNTY":"043","id":"06043","Population":17203}},{"type":"Feature","geometry":{"type":"Point","coordinates":[-17.681636242175625,5.279920860337803]},"properties":{"NAME":"Modoc","GEO_ID":"0500000US06049","STATE":"06","COUNTY":"049","id":"06049","Population":8841}},{"type":"Feature","geometry":{"type":"Point","coordinates":[-18.960685727562176,2.3503306984031744]},"properties":{"NAME":"Sacramento","GEO_ID":"0500000US06067","STATE":"06","COUNTY":"067","id":"06067","Population":1552058}},{"type":"Feature","geometry":{"type":"Point","coordinates":[-15.83490144743989,-2.158010035530077]},"properties":{"NAME":"San Bernardino","GEO_ID":"0500000US06071","STATE":"06","COUNTY":"071","id":"06071","Population":2180085}},{"type":"Feature","geometry":{"type":"Point","coordinates":[-18.974338066285206,-1.7534459370035895]},"properties":{"NAME":"Santa Barbara","GEO_ID":"0500000US06083","STATE":"06","COUNTY":"083","id":"06083","Population":446499}},{"type":"Feature","geometry":{"type":"Point","coordinates":[-18.847991977851198,4.737996367940099]},"properties":{"NAME":"Shasta","GEO_ID":"0500000US06089","STATE":"06","COUNTY":"089","id":"06089","Population":180080}},{"type":"Feature","geometry":{"type":"Point","coordinates":[-17.585588238168906,-0.32952316540733817]},"properties":{"NAME":"Tulare","GEO_ID":"0500000US06107","STATE":"06","COUNTY":"107","id":"06107","Population":466195}},{"type":"Feature","geometry":{"type":"Point","coordinates":[-5.86997016835655,1.4625410644646724]},"properties":{"NAME":"Adams","GEO_ID":"0500000US08001","STATE":"08","COUNTY":"001","id":"08001","Population":517421}},{"type":"Feature","geometry":{"type":"Point","coordinates":[-7.205454358625509,-0.7445010759410777]},"properties":{"NAME":"Alamosa","GEO_ID":"0500000US08003","STATE":"08","COUNTY":"003","id":"08003","Population":16233}},{"type":"Feature","geometry":{"type":"Point","coordinates":[-5.053170901799763,-0.5484999383853005]},"properties":{"NAME":"Bent","GEO_ID":"0500000US08011","STATE":"08","COUNTY":"011","id":"08011","Population":5577}},{"type":"Feature","geometry":{"type":"Point","coordinates":[-6.618810107766094,1.752033959112502]},"properties":{"NAME":"Boulder","GEO_ID":"0500000US08013","STATE":"08","COUNTY":"013","id":"08013","Population":326196}},{"type":"Feature","geometry":{"type":"Point","coordinates":[-6.393878848467384,1.596414141555344]},"properties":{"NAME":"Broomfield","GEO_ID":"0500000US08014","STATE":"08","COUNTY":"014","id":"08014","Population":70465}},{"type":"Feature","geometry":{"type":"Point","coordinates":[-5.57683937848195,-0.13088301750593967]},"properties":{"NAME":"Crowley","GEO_ID":"0500000US08025","STATE":"08","COUNTY":"025","id":"08025","Population":6061}},{"type":"Feature","geometry":{"type":"Point","coordinates":[-5.765723381645038,0.8579325051548425]},"properties":{"NAME":"Elbert","GEO_ID":"0500000US08039","STATE":"08","COUNTY":"039","id":"08039","Population":26729}},{"type":"Feature","geometry":{"type":"Point","coordinates":[-6.7679813788302035,1.5287971609205728]},"properties":{"NAME":"Gilpin","GEO_ID":"0500000US08047","STATE":"08","COUNTY":"047","id":"08047","Population":6243}},{"type":"Feature","geometry":{"type":"Point","coordinates":[8.295187551153667,-5.823576156160659]},"properties":{"NAME":"Autauga","GEO_ID":"0500000US01001","STATE":"01","COUNTY":"001","id":"01001","Population":55869}},{"type":"Feature","geometry":{"type":"Point","coordinates":[7.552303826150909,-7.701923267203393]},"properties":{"NAME":"Baldwin","GEO_ID":"0500000US01003","STATE":"01","COUNTY":"003","id":"01003","Population":223234}},{"type":"Feature","geometry":{"type":"Point","coordinates":[7.848050329465551,-5.400356444593234]},"properties":{"NAME":"Bibb","GEO_ID":"0500000US01007","STATE":"01","COUNTY":"007","id":"01007","Population":22394}},{"type":"Feature","geometry":{"type":"Point","coordinates":[9.116049093914869,-6.175905593111168]},"properties":{"NAME":"Bullock","GEO_ID":"0500000US01011","STATE":"01","COUNTY":"011","id":"01011","Population":10101}},{"type":"Feature","geometry":{"type":"Point","coordinates":[8.20148873501205,-5.518063694861213]},"properties":{"NAME":"Chilton","GEO_ID":"0500000US01021","STATE":"01","COUNTY":"021","id":"01021","Population":44428}},{"type":"Feature","geometry":{"type":"Point","coordinates":[8.960898811820018,-6.8929991489810485]},"properties":{"NAME":"Coffee","GEO_ID":"0500000US01031","STATE":"01","COUNTY":"031","id":"01031","Population":52342}},{"type":"Feature","geometry":{"type":"Point","coordinates":[8.583433362392261,-5.3909161238769086]},"properties":{"NAME":"Coosa","GEO_ID":"0500000US01037","STATE":"01","COUNTY":"037","id":"01037","Population":10663}},{"type":"Feature","geometry":{"type":"Point","coordinates":[9.27624815761482,-6.829665262099333]},"properties":{"NAME":"Dale","GEO_ID":"0500000US01045","STATE":"01","COUNTY":"045","id":"01045","Population":49172}},{"type":"Feature","geometry":{"type":"Point","coordinates":[8.642845398491698,-4.266327232118615]},"properties":{"NAME":"Etowah","GEO_ID":"0500000US01055","STATE":"01","COUNTY":"055","id":"01055","Population":102268}},{"type":"Feature","geometry":{"type":"Point","coordinates":[7.128696328535796,-4.009056798440225]},"properties":{"NAME":"Franklin","GEO_ID":"0500000US01059","STATE":"01","COUNTY":"059","id":"01059","Population":31362}},{"type":"Feature","geometry":{"type":"Point","coordinates":[6.9772220046572855,-4.691076606189723]},"properties":{"NAME":"Lamar","GEO_ID":"0500000US01075","STATE":"01","COUNTY":"075","id":"01075","Population":13805}},{"type":"Feature","geometry":{"type":"Point","coordinates":[9.103647756904822,-5.8900052878565194]},"properties":{"NAME":"Macon","GEO_ID":"0500000US01087","STATE":"01","COUNTY":"087","id":"01087","Population":18068}},{"type":"Feature","geometry":{"type":"Point","coordinates":[7.119047569870234,-4.31824010418903]},"properties":{"NAME":"Marion","GEO_ID":"0500000US01093","STATE":"01","COUNTY":"093","id":"01093","Population":29709}},{"type":"Feature","geometry":{"type":"Point","coordinates":[7.934009549818351,-3.9245151691426123]},"properties":{"NAME":"Morgan","GEO_ID":"0500000US01103","STATE":"01","COUNTY":"103","id":"01103","Population":119679}},{"type":"Feature","geometry":{"type":"Point","coordinates":[9.19761197926041,-4.965308858038202]},"properties":{"NAME":"Randolph","GEO_ID":"0500000US01111","STATE":"01","COUNTY":"111","id":"01111","Population":22722}},{"type":"Feature","geometry":{"type":"Point","coordinates":[6.991511167346557,-5.88653747279115]},"properties":{"NAME":"Sumter","GEO_ID":"0500000US01119","STATE":"01","COUNTY":"119","id":"01119","Population":12427}},{"type":"Feature","geometry":{"type":"Point","coordinates":[7.790471434736619,-6.418940425333127]},"properties":{"NAME":"Wilcox","GEO_ID":"0500000US01131","STATE":"01","COUNTY":"131","id":"01131","Population":10373}},{"type":"Feature","geometry":{"type":"Point","coordinates":[-18.823341741273158,-12.38849575101684]},"properties":{"NAME":"Aleutians East","GEO_ID":"0500000US02013","STATE":"02","COUNTY":"013","id":"02013","Population":3337}},{"type":"Feature","geometry":{"type":"Point","coordinates":[-18.56813697845531,-10.605116227830756]},"properties":{"NAME":"Bethel","GEO_ID":"0500000US02050","STATE":"02","COUNTY":"050","id":"02050","Population":18386}},{"type":"Feature","geometry":{"type":"Point","coordinates":[-14.143169352972741,-11.027357754137793]},"properties":{"NAME":"Hoonah-Angoon","GEO_ID":"0500000US02105","STATE":"02","COUNTY":"105","id":"02105","Population":2148}},{"type":"Feature","geometry":{"type":"Point","coordinates":[-16.67943252920369,-10.72436794705911]},"properties":{"NAME":"Kenai Peninsula","GEO_ID":"0500000US02122","STATE":"02","COUNTY":"122","id":"02122","Population":58708}},{"type":"Feature","geometry":{"type":"Point","coordinates":[-12.769771099875308,-11.690652779557535]},"properties":{"NAME":"Ketchikan Gateway","GEO_ID":"0500000US02130","STATE":"02","COUNTY":"130","id":"02130","Population":13901}},{"type":"Feature","geometry":{"type":"Point","coordinates":[-17.299500867541976,-11.808340511274201]},"properties":{"NAME":"Kodiak Island","GEO_ID":"0500000US02150","STATE":"02","COUNTY":"150","id":"02150","Population":12998}},{"type":"Feature","geometry":{"type":"Point","coordinates":[-17.45856030412626,-11.321207467730218]},"properties":{"NAME":"Lake and Peninsula","GEO_ID":"0500000US02164","STATE":"02","COUNTY":"164","id":"02164","Population":1592}},{"type":"Feature","geometry":{"type":"Point","coordinates":[-18.88242482017065,-9.23302384564861]},"properties":{"NAME":"Nome","GEO_ID":"0500000US02180","STATE":"02","COUNTY":"180","id":"02180","Population":10004}},{"type":"Feature","geometry":{"type":"Point","coordinates":[-17.155512244231485,-7.68824754114914]},"properties":{"NAME":"North Slope","GEO_ID":"0500000US02185","STATE":"02","COUNTY":"185","id":"02185","Population":9832}},{"type":"Feature","geometry":{"type":"Point","coordinates":[-18.011845761301128,-8.45830171769213]},"properties":{"NAME":"Northwest Arctic","GEO_ID":"0500000US02188","STATE":"02","COUNTY":"188","id":"02188","Population":7621}},{"type":"Feature","geometry":{"type":"Point","coordinates":[-13.331516129541917,-11.43331149103674]},"properties":{"NAME":"Petersburg","GEO_ID":"0500000US02195","STATE":"02","COUNTY":"195","id":"02195","Population":3266}},{"type":"Feature","geometry":{"type":"Point","coordinates":[-13.712238439593811,-11.387383161536517]},"properties":{"NAME":"Sitka","GEO_ID":"0500000US02220","STATE":"02","COUNTY":"220","id":"02220","Population":8493}},{"type":"Feature","geometry":{"type":"Point","coordinates":[6.530576404633142,-0.9479221699864463]},"properties":{"NAME":"Hardin","GEO_ID":"0500000US17069","STATE":"17","COUNTY":"069","id":"17069","Population":3821}},{"type":"Feature","geometry":{"type":"Point","coordinates":[6.4953670253783296,0.561254457753507]},"properties":{"NAME":"Jasper","GEO_ID":"0500000US17079","STATE":"17","COUNTY":"079","id":"17079","Population":9610}},{"type":"Feature","geometry":{"type":"Point","coordinates":[5.9578132912740775,-0.20057170617650041]},"properties":{"NAME":"Jefferson","GEO_ID":"0500000US17081","STATE":"17","COUNTY":"081","id":"17081","Population":37684}},{"type":"Feature","geometry":{"type":"Point","coordinates":[6.054830510987356,-1.0445762305792694]},"properties":{"NAME":"Johnson","GEO_ID":"0500000US17087","STATE":"17","COUNTY":"087","id":"17087","Population":12417}},{"type":"Feature","geometry":{"type":"Point","coordinates":[6.0774631473616205,3.1374366507614666]},"properties":{"NAME":"Kendall","GEO_ID":"0500000US17093","STATE":"17","COUNTY":"093","id":"17093","Population":128990}},{"type":"Feature","geometry":{"type":"Point","coordinates":[5.757231964798774,2.863137507766449]},"properties":{"NAME":"LaSalle","GEO_ID":"0500000US17099","STATE":"17","COUNTY":"099","id":"17099","Population":108669}},{"type":"Feature","geometry":{"type":"Point","coordinates":[5.421190546462323,3.245431218520944]},"properties":{"NAME":"Lee","GEO_ID":"0500000US17103","STATE":"17","COUNTY":"103","id":"17103","Population":34096}},{"type":"Feature","geometry":{"type":"Point","coordinates":[4.475908937419562,1.8834456544975056]},"properties":{"NAME":"McDonough","GEO_ID":"0500000US17109","STATE":"17","COUNTY":"109","id":"17109","Population":29682}},{"type":"Feature","geometry":{"type":"Point","coordinates":[5.812083418914628,1.3675203111003618]},"properties":{"NAME":"Macon","GEO_ID":"0500000US17115","STATE":"17","COUNTY":"115","id":"17115","Population":104009}},{"type":"Feature","geometry":{"type":"Point","coordinates":[5.935401752535158,0.15155404952662735]},"properties":{"NAME":"Marion","GEO_ID":"0500000US17121","STATE":"17","COUNTY":"121","id":"17121","Population":37205}},{"type":"Feature","geometry":{"type":"Point","coordinates":[5.163717355585109,1.4920756498573964]},"properties":{"NAME":"Menard","GEO_ID":"0500000US17129","STATE":"17","COUNTY":"129","id":"17129","Population":12196}},{"type":"Feature","geometry":{"type":"Point","coordinates":[5.463179266250374,0.7061121597580959]},"properties":{"NAME":"Montgomery","GEO_ID":"0500000US17135","STATE":"17","COUNTY":"135","id":"17135","Population":28414}},{"type":"Feature","geometry":{"type":"Point","coordinates":[5.385343256298648,3.5415071850306172]},"properties":{"NAME":"Ogle","GEO_ID":"0500000US17141","STATE":"17","COUNTY":"141","id":"17141","Population":50643}},{"type":"Feature","geometry":{"type":"Point","coordinates":[6.08125550683097,1.5398564537371986]},"properties":{"NAME":"Piatt","GEO_ID":"0500000US17147","STATE":"17","COUNTY":"147","id":"17147","Population":16344}},{"type":"Feature","geometry":{"type":"Point","coordinates":[5.4704020044118495,2.7019274166342844]},"properties":{"NAME":"Putnam","GEO_ID":"0500000US17155","STATE":"17","COUNTY":"155","id":"17155","Population":5739}},{"type":"Feature","geometry":{"type":"Point","coordinates":[6.572909096943609,0.265575615667765]},"properties":{"NAME":"Richland","GEO_ID":"0500000US17159","STATE":"17","COUNTY":"159","id":"17159","Population":15513}},{"type":"Feature","geometry":{"type":"Point","coordinates":[6.297909683703154,-0.7283326540472218]},"properties":{"NAME":"Saline","GEO_ID":"0500000US17165","STATE":"17","COUNTY":"165","id":"17165","Population":23491}},{"type":"Feature","geometry":{"type":"Point","coordinates":[4.676853195847842,1.0739521315477156]},"properties":{"NAME":"Scott","GEO_ID":"0500000US17171","STATE":"17","COUNTY":"171","id":"17171","Population":4951}},{"type":"Feature","geometry":{"type":"Point","coordinates":[5.09674475324838,2.564027681165832]},"properties":{"NAME":"Stark","GEO_ID":"0500000US17175","STATE":"17","COUNTY":"175","id":"17175","Population":5342}},{"type":"Feature","geometry":{"type":"Point","coordinates":[4.500959607610696,2.280479224701302]},"properties":{"NAME":"Warren","GEO_ID":"0500000US17187","STATE":"17","COUNTY":"187","id":"17187","Population":16844}},{"type":"Feature","geometry":{"type":"Point","coordinates":[5.576449344395141,-0.17500390825574139]},"properties":{"NAME":"Washington","GEO_ID":"0500000US17189","STATE":"17","COUNTY":"189","id":"17189","Population":13887}},{"type":"Feature","geometry":{"type":"Point","coordinates":[6.422930072117258,3.0182848377256977]},"properties":{"NAME":"Will","GEO_ID":"0500000US17197","STATE":"17","COUNTY":"197","id":"17197","Population":690743}},{"type":"Feature","geometry":{"type":"Point","coordinates":[8.755521252777433,2.545407418240992]},"properties":{"NAME":"Adams","GEO_ID":"0500000US18001","STATE":"18","COUNTY":"001","id":"18001","Population":35777}},{"type":"Feature","geometry":{"type":"Point","coordinates":[6.9944558484719135,2.220744612418925]},"properties":{"NAME":"Benton","GEO_ID":"0500000US18007","STATE":"18","COUNTY":"007","id":"18007","Population":8748}},{"type":"Feature","geometry":{"type":"Point","coordinates":[7.6818773534867,1.7242769039873986]},"properties":{"NAME":"Boone","GEO_ID":"0500000US18011","STATE":"18","COUNTY":"011","id":"18011","Population":67843}},{"type":"Feature","geometry":{"type":"Point","coordinates":[7.701444654434821,2.446366947174916]},"properties":{"NAME":"Cass","GEO_ID":"0500000US18017","STATE":"18","COUNTY":"017","id":"18017","Population":37689}},{"type":"Feature","geometry":{"type":"Point","coordinates":[7.65108810032641,1.975453908101421]},"properties":{"NAME":"Clinton","GEO_ID":"0500000US18023","STATE":"18","COUNTY":"023","id":"18023","Population":32399}},{"type":"Feature","geometry":{"type":"Point","coordinates":[8.494437237213878,1.055448725080491]},"properties":{"NAME":"Decatur","GEO_ID":"0500000US18031","STATE":"18","COUNTY":"031","id":"18031","Population":26559}},{"type":"Feature","geometry":{"type":"Point","coordinates":[8.469927741321234,1.9874230810351254]},"properties":{"NAME":"Delaware","GEO_ID":"0500000US18035","STATE":"18","COUNTY":"035","id":"18035","Population":114135}},{"type":"Feature","geometry":{"type":"Point","coordinates":[8.701971885206659,1.4167110341636258]},"properties":{"NAME":"Fayette","GEO_ID":"0500000US18041","STATE":"18","COUNTY":"041","id":"18041","Population":23102}},{"type":"Feature","geometry":{"type":"Point","coordinates":[8.817419545440524,1.201123997732791]},"properties":{"NAME":"Franklin","GEO_ID":"0500000US18047","STATE":"18","COUNTY":"047","id":"18047","Population":22758}},{"type":"Feature","geometry":{"type":"Point","coordinates":[7.733630538505086,2.7388647530671664]},"properties":{"NAME":"Fulton","GEO_ID":"0500000US18049","STATE":"18","COUNTY":"049","id":"18049","Population":19974}},{"type":"Feature","geometry":{"type":"Point","coordinates":[8.244804569709482,2.2546729309989257]},"properties":{"NAME":"Grant","GEO_ID":"0500000US18053","STATE":"18","COUNTY":"053","id":"18053","Population":65769}},{"type":"Feature","geometry":{"type":"Point","coordinates":[7.406348361743579,0.6686333091502267]},"properties":{"NAME":"Greene","GEO_ID":"0500000US18055","STATE":"18","COUNTY":"055","id":"18055","Population":31922}},{"type":"Feature","geometry":{"type":"Point","coordinates":[8.503844270487546,1.6900824744907579]},"properties":{"NAME":"Henry","GEO_ID":"0500000US18065","STATE":"18","COUNTY":"065","id":"18065","Population":47972}},{"type":"Feature","geometry":{"type":"Point","coordinates":[8.334643680684833,2.582000748308829]},"properties":{"NAME":"Huntington","GEO_ID":"0500000US18069","STATE":"18","COUNTY":"069","id":"18069","Population":36520}},{"type":"Feature","geometry":{"type":"Point","coordinates":[8.739957775610318,2.231370868171102]},"properties":{"NAME":"Jay","GEO_ID":"0500000US18075","STATE":"18","COUNTY":"075","id":"18075","Population":20436}},{"type":"Feature","geometry":{"type":"Point","coordinates":[8.017851533084434,1.1896888457538157]},"properties":{"NAME":"Johnson","GEO_ID":"0500000US18081","STATE":"18","COUNTY":"081","id":"18081","Population":158167}},{"type":"Feature","geometry":{"type":"Point","coordinates":[8.012220988894162,2.967883255542424]},"properties":{"NAME":"Kosciusko","GEO_ID":"0500000US18085","STATE":"18","COUNTY":"085","id":"18085","Population":79456}},{"type":"Feature","geometry":{"type":"Point","coordinates":[7.792759175416585,0.5083442264402125]},"properties":{"NAME":"Lawrence","GEO_ID":"0500000US18093","STATE":"18","COUNTY":"093","id":"18093","Population":45370}},{"type":"Feature","geometry":{"type":"Point","coordinates":[8.234753869809705,1.8939463704845756]},"properties":{"NAME":"Madison","GEO_ID":"0500000US18095","STATE":"18","COUNTY":"095","id":"18095","Population":129569}},{"type":"Feature","geometry":{"type":"Point","coordinates":[7.560359584443402,0.350698918779396]},"properties":{"NAME":"Martin","GEO_ID":"0500000US18101","STATE":"18","COUNTY":"101","id":"18101","Population":10255}},{"type":"Feature","geometry":{"type":"Point","coordinates":[7.3621069710907046,1.6820563506015433]},"properties":{"NAME":"Montgomery","GEO_ID":"0500000US18107","STATE":"18","COUNTY":"107","id":"18107","Population":38338}},{"type":"Feature","geometry":{"type":"Point","coordinates":[8.323729814172786,3.157711516533167]},"properties":{"NAME":"Noble","GEO_ID":"0500000US18113","STATE":"18","COUNTY":"113","id":"18113","Population":47744}},{"type":"Feature","geometry":{"type":"Point","coordinates":[7.813760093110915,0.20609530091730183]},"properties":{"NAME":"Orange","GEO_ID":"0500000US18117","STATE":"18","COUNTY":"117","id":"18117","Population":19646}},{"type":"Feature","geometry":{"type":"Point","coordinates":[7.0963051410796005,3.0941105018690975]},"properties":{"NAME":"Porter","GEO_ID":"0500000US18127","STATE":"18","COUNTY":"127","id":"18127","Population":170389}},{"type":"Feature","geometry":{"type":"Point","coordinates":[7.410247637805044,2.700886660011918]},"properties":{"NAME":"Pulaski","GEO_ID":"0500000US18131","STATE":"18","COUNTY":"131","id":"18131","Population":12353}},{"type":"Feature","geometry":{"type":"Point","coordinates":[7.434812818315222,1.3099639736148425]},"properties":{"NAME":"Putnam","GEO_ID":"0500000US18133","STATE":"18","COUNTY":"133","id":"18133","Population":37576}},{"type":"Feature","geometry":{"type":"Point","coordinates":[8.48647224331677,1.3722663634261896]},"properties":{"NAME":"Rush","GEO_ID":"0500000US18139","STATE":"18","COUNTY":"139","id":"18139","Population":16581}},{"type":"Feature","geometry":{"type":"Point","coordinates":[8.249835731893093,1.2479336969008543]},"properties":{"NAME":"Shelby","GEO_ID":"0500000US18145","STATE":"18","COUNTY":"145","id":"18145","Population":44729}},{"type":"Feature","geometry":{"type":"Point","coordinates":[7.327883950218727,2.031716220031287]},"properties":{"NAME":"Tippecanoe","GEO_ID":"0500000US18157","STATE":"18","COUNTY":"157","id":"18157","Population":195732}},{"type":"Feature","geometry":{"type":"Point","coordinates":[7.968387285453033,2.017595288797905]},"properties":{"NAME":"Tipton","GEO_ID":"0500000US18159","STATE":"18","COUNTY":"159","id":"18159","Population":15148}},{"type":"Feature","geometry":{"type":"Point","coordinates":[7.042880029343365,1.0344351846675293]},"properties":{"NAME":"Vigo","GEO_ID":"0500000US18167","STATE":"18","COUNTY":"167","id":"18167","Population":107038}},{"type":"Feature","geometry":{"type":"Point","coordinates":[8.803547771811838,1.6563709899830947]},"properties":{"NAME":"Wayne","GEO_ID":"0500000US18177","STATE":"18","COUNTY":"177","id":"18177","Population":65884}},{"type":"Feature","geometry":{"type":"Point","coordinates":[8.544987639483548,2.5045326588881944]},"properties":{"NAME":"Wells","GEO_ID":"0500000US18179","STATE":"18","COUNTY":"179","id":"18179","Population":28296}},{"type":"Feature","geometry":{"type":"Point","coordinates":[1.602715123960107,2.661272336047978]},"properties":{"NAME":"Adair","GEO_ID":"0500000US19001","STATE":"19","COUNTY":"001","id":"19001","Population":7152}},{"type":"Feature","geometry":{"type":"Point","coordinates":[2.8156091349912105,2.09902599001671]},"properties":{"NAME":"Appanoose","GEO_ID":"0500000US19007","STATE":"19","COUNTY":"007","id":"19007","Population":12426}},{"type":"Feature","geometry":{"type":"Point","coordinates":[3.1684517827962964,3.850288264204001]},"properties":{"NAME":"Black Hawk","GEO_ID":"0500000US19013","STATE":"19","COUNTY":"013","id":"19013","Population":131228}},{"type":"Feature","geometry":{"type":"Point","coordinates":[3.14976383917454,4.15558652026548]},"properties":{"NAME":"Bremer","GEO_ID":"0500000US19017","STATE":"19","COUNTY":"017","id":"19017","Population":25062}},{"type":"Feature","geometry":{"type":"Point","coordinates":[1.0835785782130198,4.067076818765428]},"properties":{"NAME":"Buena Vista","GEO_ID":"0500000US19021","STATE":"19","COUNTY":"021","id":"19021","Population":19620}},{"type":"Feature","geometry":{"type":"Point","coordinates":[1.3042325551347995,3.3668566866598995]},"properties":{"NAME":"Carroll","GEO_ID":"0500000US19027","STATE":"19","COUNTY":"027","id":"19027","Population":20165}},{"type":"Feature","geometry":{"type":"Point","coordinates":[4.065566517607647,3.188706745507992]},"properties":{"NAME":"Cedar","GEO_ID":"0500000US19031","STATE":"19","COUNTY":"031","id":"19031","Population":18627}},{"type":"Feature","geometry":{"type":"Point","coordinates":[0.7383236215752875,4.064745672379578]},"properties":{"NAME":"Cherokee","GEO_ID":"0500000US19035","STATE":"19","COUNTY":"035","id":"19035","Population":11235}},{"type":"Feature","geometry":{"type":"Point","coordinates":[2.1208009459649872,2.3676217723459905]},"properties":{"NAME":"Clarke","GEO_ID":"0500000US19039","STATE":"19","COUNTY":"039","id":"19039","Population":9395}},{"type":"Feature","geometry":{"type":"Point","coordinates":[11.552724276657758,-4.73342738068069]},"properties":{"NAME":"Glascock","GEO_ID":"0500000US13125","STATE":"13","COUNTY":"125","id":"13125","Population":2971}},{"type":"Feature","geometry":{"type":"Point","coordinates":[12.738540688831803,-6.579664256849743]},"properties":{"NAME":"Glynn","GEO_ID":"0500000US13127","STATE":"13","COUNTY":"127","id":"13127","Population":85292}},{"type":"Feature","geometry":{"type":"Point","coordinates":[10.50753860880533,-7.244886635667017]},"properties":{"NAME":"Grady","GEO_ID":"0500000US13131","STATE":"13","COUNTY":"131","id":"13131","Population":24633}},{"type":"Feature","geometry":{"type":"Point","coordinates":[9.345583786678633,-4.442912320800954]},"properties":{"NAME":"Haralson","GEO_ID":"0500000US13143","STATE":"13","COUNTY":"143","id":"13143","Population":29792}},{"type":"Feature","geometry":{"type":"Point","coordinates":[9.470241187525561,-4.9317246041902285]},"properties":{"NAME":"Heard","GEO_ID":"0500000US13149","STATE":"13","COUNTY":"149","id":"13149","Population":11923}},{"type":"Feature","geometry":{"type":"Point","coordinates":[11.222755186959935,-6.4225348116774414]},"properties":{"NAME":"Irwin","GEO_ID":"0500000US13155","STATE":"13","COUNTY":"155","id":"13155","Population":9416}},{"type":"Feature","geometry":{"type":"Point","coordinates":[11.736476467024469,-4.883941254783242]},"properties":{"NAME":"Jefferson","GEO_ID":"0500000US13163","STATE":"13","COUNTY":"163","id":"13163","Population":15362}},{"type":"Feature","geometry":{"type":"Point","coordinates":[10.313236625138245,-5.053231164176203]},"properties":{"NAME":"Lamar","GEO_ID":"0500000US13171","STATE":"13","COUNTY":"171","id":"13171","Population":19077}},{"type":"Feature","geometry":{"type":"Point","coordinates":[10.474836456342507,-6.340418260967979]},"properties":{"NAME":"Lee","GEO_ID":"0500000US13177","STATE":"13","COUNTY":"177","id":"13177","Population":29992}},{"type":"Feature","geometry":{"type":"Point","coordinates":[11.623316388335464,-4.46521976380506]},"properties":{"NAME":"McDuffie","GEO_ID":"0500000US13189","STATE":"13","COUNTY":"189","id":"13189","Population":21312}},{"type":"Feature","geometry":{"type":"Point","coordinates":[9.863106832957023,-5.14432107416045]},"properties":{"NAME":"Meriwether","GEO_ID":"0500000US13199","STATE":"13","COUNTY":"199","id":"13199","Population":21167}},{"type":"Feature","geometry":{"type":"Point","coordinates":[10.491320580084318,-4.546299983705364]},"properties":{"NAME":"Newton","GEO_ID":"0500000US13217","STATE":"13","COUNTY":"217","id":"13217","Population":111744}},{"type":"Feature","geometry":{"type":"Point","coordinates":[9.612487405674058,-4.284991895911845]},"properties":{"NAME":"Paulding","GEO_ID":"0500000US13223","STATE":"13","COUNTY":"223","id":"13223","Population":168667}},{"type":"Feature","geometry":{"type":"Point","coordinates":[9.874188480461726,-3.7032002863081344]},"properties":{"NAME":"Pickens","GEO_ID":"0500000US13227","STATE":"13","COUNTY":"227","id":"13227","Population":32591}},{"type":"Feature","geometry":{"type":"Point","coordinates":[9.34098573618552,-4.232786352969724]},"properties":{"NAME":"Polk","GEO_ID":"0500000US13233","STATE":"13","COUNTY":"233","id":"13233","Population":42613}},{"type":"Feature","geometry":{"type":"Point","coordinates":[9.961760173750411,-6.419929096809931]},"properties":{"NAME":"Randolph","GEO_ID":"0500000US13243","STATE":"13","COUNTY":"243","id":"13243","Population":6778}},{"type":"Feature","geometry":{"type":"Point","coordinates":[10.268630824850092,-5.880550556413865]},"properties":{"NAME":"Schley","GEO_ID":"0500000US13249","STATE":"13","COUNTY":"249","id":"13249","Population":5257}},{"type":"Feature","geometry":{"type":"Point","coordinates":[10.394769502252904,-6.088130694910225]},"properties":{"NAME":"Sumter","GEO_ID":"0500000US13261","STATE":"13","COUNTY":"261","id":"13261","Population":29524}},{"type":"Feature","geometry":{"type":"Point","coordinates":[10.225861049764882,-6.373427417154533]},"properties":{"NAME":"Terrell","GEO_ID":"0500000US13273","STATE":"13","COUNTY":"273","id":"13273","Population":8531}},{"type":"Feature","geometry":{"type":"Point","coordinates":[11.031660483498294,-6.593412087745291]},"properties":{"NAME":"Tift","GEO_ID":"0500000US13277","STATE":"13","COUNTY":"277","id":"13277","Population":40644}},{"type":"Feature","geometry":{"type":"Point","coordinates":[9.58375603517875,-5.184048659988076]},"properties":{"NAME":"Troup","GEO_ID":"0500000US13285","STATE":"13","COUNTY":"285","id":"13285","Population":69922}},{"type":"Feature","geometry":{"type":"Point","coordinates":[9.165215143057518,-3.510543159377763]},"properties":{"NAME":"Walker","GEO_ID":"0500000US13295","STATE":"13","COUNTY":"295","id":"13295","Population":69761}},{"type":"Feature","geometry":{"type":"Point","coordinates":[10.096862022587624,-6.116844955274443]},"properties":{"NAME":"Webster","GEO_ID":"0500000US13307","STATE":"13","COUNTY":"307","id":"13307","Population":2607}},{"type":"Feature","geometry":{"type":"Point","coordinates":[10.433496969871063,-3.4488051180632757]},"properties":{"NAME":"White","GEO_ID":"0500000US13311","STATE":"13","COUNTY":"311","id":"13311","Population":30798}},{"type":"Feature","geometry":{"type":"Point","coordinates":[11.044501412714094,-6.072468719300022]},"properties":{"NAME":"Wilcox","GEO_ID":"0500000US13315","STATE":"13","COUNTY":"315","id":"13315","Population":8635}},{"type":"Feature","geometry":{"type":"Point","coordinates":[-8.891481766795954,-10.81451628710274]},"properties":{"NAME":"Kalawao","GEO_ID":"0500000US15005","STATE":"15","COUNTY":"005","id":"15005","Population":86}},{"type":"Feature","geometry":{"type":"Point","coordinates":[-8.594603724159064,-11.129665897552307]},"properties":{"NAME":"Maui","GEO_ID":"0500000US15009","STATE":"15","COUNTY":"009","id":"15009","Population":167417}},{"type":"Feature","geometry":{"type":"Point","coordinates":[-13.532950541074866,10.030327587960018]},"properties":{"NAME":"Benewah","GEO_ID":"0500000US16009","STATE":"16","COUNTY":"009","id":"16009","Population":9298}},{"type":"Feature","geometry":{"type":"Point","coordinates":[-10.777430797974205,5.6402609703705515]},"properties":{"NAME":"Bonneville","GEO_ID":"0500000US16019","STATE":"16","COUNTY":"019","id":"16019","Population":119062}},{"type":"Feature","geometry":{"type":"Point","coordinates":[-13.03217425426476,6.127974841760711]},"properties":{"NAME":"Camas","GEO_ID":"0500000US16025","STATE":"16","COUNTY":"025","id":"16025","Population":1106}},{"type":"Feature","geometry":{"type":"Point","coordinates":[-11.120891844336983,4.470630756953111]},"properties":{"NAME":"Franklin","GEO_ID":"0500000US16041","STATE":"16","COUNTY":"041","id":"16041","Population":13876}},{"type":"Feature","geometry":{"type":"Point","coordinates":[-14.03108780779394,6.943369357947153]},"properties":{"NAME":"Gem","GEO_ID":"0500000US16045","STATE":"16","COUNTY":"045","id":"16045","Population":18112}},{"type":"Feature","geometry":{"type":"Point","coordinates":[-13.018031421488493,8.537494691766218]},"properties":{"NAME":"Idaho","GEO_ID":"0500000US16049","STATE":"16","COUNTY":"049","id":"16049","Population":16667}},{"type":"Feature","geometry":{"type":"Point","coordinates":[-13.654613294952055,9.653152047027827]},"properties":{"NAME":"Latah","GEO_ID":"0500000US16057","STATE":"16","COUNTY":"057","id":"16057","Population":40108}},{"type":"Feature","geometry":{"type":"Point","coordinates":[-12.134075086569002,7.453678096371195]},"properties":{"NAME":"Lemhi","GEO_ID":"0500000US16059","STATE":"16","COUNTY":"059","id":"16059","Population":8027}},{"type":"Feature","geometry":{"type":"Point","coordinates":[-12.317944646413098,5.368282849357062]},"properties":{"NAME":"Minidoka","GEO_ID":"0500000US16067","STATE":"16","COUNTY":"067","id":"16067","Population":21039}},{"type":"Feature","geometry":{"type":"Point","coordinates":[-10.428224647756695,5.959689142769878]},"properties":{"NAME":"Teton","GEO_ID":"0500000US16081","STATE":"16","COUNTY":"081","id":"16081","Population":12142}},{"type":"Feature","geometry":{"type":"Point","coordinates":[5.520320253704593,0.3619352921746521]},"properties":{"NAME":"Bond","GEO_ID":"0500000US17005","STATE":"17","COUNTY":"005","id":"17005","Population":16426}},{"type":"Feature","geometry":{"type":"Point","coordinates":[5.7296005137316595,3.8484877436390885]},"properties":{"NAME":"Boone","GEO_ID":"0500000US17007","STATE":"17","COUNTY":"007","id":"17007","Population":53544}},{"type":"Feature","geometry":{"type":"Point","coordinates":[4.448857764951302,1.3814257641496333]},"properties":{"NAME":"Brown","GEO_ID":"0500000US17009","STATE":"17","COUNTY":"009","id":"17009","Population":6578}},{"type":"Feature","geometry":{"type":"Point","coordinates":[6.36687593538182,1.6943261038679966]},"properties":{"NAME":"Champaign","GEO_ID":"0500000US17019","STATE":"17","COUNTY":"019","id":"17019","Population":209689}},{"type":"Feature","geometry":{"type":"Point","coordinates":[6.257701566527035,0.2816471550696776]},"properties":{"NAME":"Clay","GEO_ID":"0500000US17025","STATE":"17","COUNTY":"025","id":"17025","Population":13184}},{"type":"Feature","geometry":{"type":"Point","coordinates":[6.401263318736037,1.0703025749995787]},"properties":{"NAME":"Coles","GEO_ID":"0500000US17029","STATE":"17","COUNTY":"029","id":"17029","Population":50621}},{"type":"Feature","geometry":{"type":"Point","coordinates":[6.4072836010901355,0.8209467485785314]},"properties":{"NAME":"Cumberland","GEO_ID":"0500000US17035","STATE":"17","COUNTY":"035","id":"17035","Population":10766}},{"type":"Feature","geometry":{"type":"Point","coordinates":[5.801464514708224,3.4206562180302127]},"properties":{"NAME":"DeKalb","GEO_ID":"0500000US17037","STATE":"17","COUNTY":"037","id":"17037","Population":104897}},{"type":"Feature","geometry":{"type":"Point","coordinates":[6.383916440773871,1.32074307406473]},"properties":{"NAME":"Douglas","GEO_ID":"0500000US17041","STATE":"17","COUNTY":"041","id":"17041","Population":19465}},{"type":"Feature","geometry":{"type":"Point","coordinates":[6.157076987019744,0.5837117721255759]},"properties":{"NAME":"Effingham","GEO_ID":"0500000US17049","STATE":"17","COUNTY":"049","id":"17049","Population":34008}},{"type":"Feature","geometry":{"type":"Point","coordinates":[6.310968972248203,2.1521701247372205]},"properties":{"NAME":"Ford","GEO_ID":"0500000US17053","STATE":"17","COUNTY":"053","id":"17053","Population":12961}},{"type":"Feature","geometry":{"type":"Point","coordinates":[6.273560251421825,-0.39774356787562737]},"properties":{"NAME":"Hamilton","GEO_ID":"0500000US17065","STATE":"17","COUNTY":"065","id":"17065","Population":8116}},{"type":"Feature","geometry":{"type":"Point","coordinates":[1.412774955713222,0.4238893617687688]},"properties":{"NAME":"Wyandotte","GEO_ID":"0500000US20209","STATE":"20","COUNTY":"209","id":"20209","Population":165429}},{"type":"Feature","geometry":{"type":"Point","coordinates":[8.912276946004658,-1.1361023111651327]},"properties":{"NAME":"Adair","GEO_ID":"0500000US21001","STATE":"21","COUNTY":"001","id":"21001","Population":19202}},{"type":"Feature","geometry":{"type":"Point","coordinates":[9.035354373650557,-0.20747656009382837]},"properties":{"NAME":"Anderson","GEO_ID":"0500000US21005","STATE":"21","COUNTY":"005","id":"21005","Population":22747}},{"type":"Feature","geometry":{"type":"Point","coordinates":[9.174019124830124,-0.5778551404174289]},"properties":{"NAME":"Boyle","GEO_ID":"0500000US21021","STATE":"21","COUNTY":"021","id":"21021","Population":30060}},{"type":"Feature","geometry":{"type":"Point","coordinates":[8.491838991484581,-0.3036701359427849]},"properties":{"NAME":"Bullitt","GEO_ID":"0500000US21029","STATE":"21","COUNTY":"029","id":"21029","Population":81676}},{"type":"Feature","geometry":{"type":"Point","coordinates":[6.600689617163904,-1.8508939671926936]},"properties":{"NAME":"Calloway","GEO_ID":"0500000US21035","STATE":"21","COUNTY":"035","id":"21035","Population":39001}},{"type":"Feature","geometry":{"type":"Point","coordinates":[9.163749967399124,-0.8860911779361282]},"properties":{"NAME":"Casey","GEO_ID":"0500000US21045","STATE":"21","COUNTY":"045","id":"21045","Population":16159}},{"type":"Feature","geometry":{"type":"Point","coordinates":[9.070080463551992,-1.502125780176488]},"properties":{"NAME":"Clinton","GEO_ID":"0500000US21053","STATE":"21","COUNTY":"053","id":"21053","Population":10218}},{"type":"Feature","geometry":{"type":"Point","coordinates":[8.149615564213443,-1.111676813140093]},"properties":{"NAME":"Edmonson","GEO_ID":"0500000US21061","STATE":"21","COUNTY":"061","id":"21061","Population":12150}},{"type":"Feature","geometry":{"type":"Point","coordinates":[9.09548535112768,0.03903218362619746]},"properties":{"NAME":"Franklin","GEO_ID":"0500000US21073","STATE":"21","COUNTY":"073","id":"21073","Population":50991}},{"type":"Feature","geometry":{"type":"Point","coordinates":[9.24116166100959,0.4728767088079635]},"properties":{"NAME":"Grant","GEO_ID":"0500000US21081","STATE":"21","COUNTY":"081","id":"21081","Population":25069}},{"type":"Feature","geometry":{"type":"Point","coordinates":[6.292285208013153,-1.7722292568173474]},"properties":{"NAME":"Graves","GEO_ID":"0500000US21083","STATE":"21","COUNTY":"083","id":"21083","Population":37266}},{"type":"Feature","geometry":{"type":"Point","coordinates":[9.4908638371869,0.2922204754660087]},"properties":{"NAME":"Harrison","GEO_ID":"0500000US21097","STATE":"21","COUNTY":"097","id":"21097","Population":18886}},{"type":"Feature","geometry":{"type":"Point","coordinates":[8.882975445079365,0.22711557503770202]},"properties":{"NAME":"Henry","GEO_ID":"0500000US21103","STATE":"21","COUNTY":"103","id":"21103","Population":16126}},{"type":"Feature","geometry":{"type":"Point","coordinates":[9.368426255757159,-0.3032492203965564]},"properties":{"NAME":"Jessamine","GEO_ID":"0500000US21113","STATE":"21","COUNTY":"113","id":"21113","Population":54115}},{"type":"Feature","geometry":{"type":"Point","coordinates":[10.07618728072821,-0.49612886215072405]},"properties":{"NAME":"Lee","GEO_ID":"0500000US21129","STATE":"21","COUNTY":"129","id":"21129","Population":7403}},{"type":"Feature","geometry":{"type":"Point","coordinates":[9.356569759673587,-0.7269307311664347]},"properties":{"NAME":"Lincoln","GEO_ID":"0500000US21137","STATE":"21","COUNTY":"137","id":"21137","Population":24549}},{"type":"Feature","geometry":{"type":"Point","coordinates":[7.6807758510155155,-1.5130487027419413]},"properties":{"NAME":"Logan","GEO_ID":"0500000US21141","STATE":"21","COUNTY":"141","id":"21141","Population":27102}},{"type":"Feature","geometry":{"type":"Point","coordinates":[7.316315057747691,-0.8686661965418172]},"properties":{"NAME":"McLean","GEO_ID":"0500000US21149","STATE":"21","COUNTY":"149","id":"21149","Population":9207}},{"type":"Feature","geometry":{"type":"Point","coordinates":[6.533931012185658,-1.5906969346872981]},"properties":{"NAME":"Marshall","GEO_ID":"0500000US21157","STATE":"21","COUNTY":"157","id":"21157","Population":31100}},{"type":"Feature","geometry":{"type":"Point","coordinates":[10.120812436592535,-0.1368818064358135]},"properties":{"NAME":"Menifee","GEO_ID":"0500000US21165","STATE":"21","COUNTY":"165","id":"21165","Population":6489}},{"type":"Feature","geometry":{"type":"Point","coordinates":[8.652395993909021,-1.2816073847198393]},"properties":{"NAME":"Metcalfe","GEO_ID":"0500000US21169","STATE":"21","COUNTY":"169","id":"21169","Population":10071}},{"type":"Feature","geometry":{"type":"Point","coordinates":[8.688147032800657,-0.4493365452510902]},"properties":{"NAME":"Nelson","GEO_ID":"0500000US21179","STATE":"21","COUNTY":"179","id":"21179","Population":46233}},{"type":"Feature","geometry":{"type":"Point","coordinates":[10.12435643432034,-0.668353533281211]},"properties":{"NAME":"Owsley","GEO_ID":"0500000US21189","STATE":"21","COUNTY":"189","id":"21189","Population":4415}},{"type":"Feature","geometry":{"type":"Point","coordinates":[11.119522329662269,-0.48117040548598317]},"properties":{"NAME":"Pike","GEO_ID":"0500000US21195","STATE":"21","COUNTY":"195","id":"21195","Population":57876}},{"type":"Feature","geometry":{"type":"Point","coordinates":[9.69714419879003,0.3970202149191424]},"properties":{"NAME":"Robertson","GEO_ID":"0500000US21201","STATE":"21","COUNTY":"201","id":"21201","Population":2108}},{"type":"Feature","geometry":{"type":"Point","coordinates":[8.77037849705246,-0.20827922152431305]},"properties":{"NAME":"Spencer","GEO_ID":"0500000US21215","STATE":"21","COUNTY":"215","id":"21215","Population":19351}},{"type":"Feature","geometry":{"type":"Point","coordinates":[8.026376608656607,-1.343191501441592]},"properties":{"NAME":"Warren","GEO_ID":"0500000US21227","STATE":"21","COUNTY":"227","id":"21227","Population":132896}},{"type":"Feature","geometry":{"type":"Point","coordinates":[10.231403437870378,-0.32832671385935985]},"properties":{"NAME":"Wolfe","GEO_ID":"0500000US21237","STATE":"21","COUNTY":"237","id":"21237","Population":7157}},{"type":"Feature","geometry":{"type":"Point","coordinates":[3.185703190305262,-8.037457399522694]},"properties":{"NAME":"Allen","GEO_ID":"0500000US22003","STATE":"22","COUNTY":"003","id":"22003","Population":25627}},{"type":"Feature","geometry":{"type":"Point","coordinates":[2.9384723943043074,-6.357093630469177]},"properties":{"NAME":"Bienville","GEO_ID":"0500000US22013","STATE":"22","COUNTY":"013","id":"22013","Population":13241}},{"type":"Feature","geometry":{"type":"Point","coordinates":[2.9732253750946365,-5.879986097949604]},"properties":{"NAME":"Claiborne","GEO_ID":"0500000US22027","STATE":"22","COUNTY":"027","id":"22027","Population":15670}},{"type":"Feature","geometry":{"type":"Point","coordinates":[4.703321381714615,-7.781508991707285]},"properties":{"NAME":"East Feliciana","GEO_ID":"0500000US22037","STATE":"22","COUNTY":"037","id":"22037","Population":19135}},{"type":"Feature","geometry":{"type":"Point","coordinates":[4.4738620780494225,-8.376514393267756]},"properties":{"NAME":"Iberville","GEO_ID":"0500000US22047","STATE":"22","COUNTY":"047","id":"22047","Population":32511}},{"type":"Feature","geometry":{"type":"Point","coordinates":[3.716654072619012,-6.999284424652736]},"properties":{"NAME":"La Salle","GEO_ID":"0500000US22059","STATE":"22","COUNTY":"059","id":"22059","Population":14892}},{"type":"Feature","geometry":{"type":"Point","coordinates":[3.688899933526762,-6.199360766999635]},"properties":{"NAME":"Ouachita","GEO_ID":"0500000US22073","STATE":"22","COUNTY":"073","id":"22073","Population":153279}},{"type":"Feature","geometry":{"type":"Point","coordinates":[6.038089111765059,-9.112328947902949]},"properties":{"NAME":"Plaquemines","GEO_ID":"0500000US22075","STATE":"22","COUNTY":"075","id":"22075","Population":23197}},{"type":"Feature","geometry":{"type":"Point","coordinates":[6.161174089911547,-8.68989683050087]},"properties":{"NAME":"St. Bernard","GEO_ID":"0500000US22087","STATE":"22","COUNTY":"087","id":"22087","Population":47244}},{"type":"Feature","geometry":{"type":"Point","coordinates":[5.346549585485183,-8.671985923785474]},"properties":{"NAME":"St. Charles","GEO_ID":"0500000US22089","STATE":"22","COUNTY":"089","id":"22089","Population":53100}},{"type":"Feature","geometry":{"type":"Point","coordinates":[5.2611189584385425,-7.960927316363335]},"properties":{"NAME":"Tangipahoa","GEO_ID":"0500000US22105","STATE":"22","COUNTY":"105","id":"22105","Population":134758}},{"type":"Feature","geometry":{"type":"Point","coordinates":[3.491139329344731,-5.853319250486997]},"properties":{"NAME":"Union","GEO_ID":"0500000US22111","STATE":"22","COUNTY":"111","id":"22111","Population":22108}},{"type":"Feature","geometry":{"type":"Point","coordinates":[1.0804873915002553,4.415110544213267]},"properties":{"NAME":"Clay","GEO_ID":"0500000US19041","STATE":"19","COUNTY":"041","id":"19041","Population":16016}},{"type":"Feature","geometry":{"type":"Point","coordinates":[3.858687346161127,4.256746654676284]},"properties":{"NAME":"Clayton","GEO_ID":"0500000US19043","STATE":"19","COUNTY":"043","id":"19043","Population":17549}},{"type":"Feature","geometry":{"type":"Point","coordinates":[0.9195034855357135,3.364399193961804]},"properties":{"NAME":"Crawford","GEO_ID":"0500000US19047","STATE":"19","COUNTY":"047","id":"19047","Population":16820}},{"type":"Feature","geometry":{"type":"Point","coordinates":[3.8578772797612206,3.8816207382597243]},"properties":{"NAME":"Delaware","GEO_ID":"0500000US19055","STATE":"19","COUNTY":"055","id":"19055","Population":17011}},{"type":"Feature","geometry":{"type":"Point","coordinates":[1.4194961738030292,4.715031898779013]},"properties":{"NAME":"Emmet","GEO_ID":"0500000US19063","STATE":"19","COUNTY":"063","id":"19063","Population":9208}},{"type":"Feature","geometry":{"type":"Point","coordinates":[3.4911747823106074,4.257912152488396]},"properties":{"NAME":"Fayette","GEO_ID":"0500000US19065","STATE":"19","COUNTY":"065","id":"19065","Population":19650}},{"type":"Feature","geometry":{"type":"Point","coordinates":[2.4621164867622154,4.0902551841234045]},"properties":{"NAME":"Franklin","GEO_ID":"0500000US19069","STATE":"19","COUNTY":"069","id":"19069","Population":10070}},{"type":"Feature","geometry":{"type":"Point","coordinates":[2.817103783016598,3.7691079467128232]},"properties":{"NAME":"Grundy","GEO_ID":"0500000US19075","STATE":"19","COUNTY":"075","id":"19075","Population":12232}},{"type":"Feature","geometry":{"type":"Point","coordinates":[2.1464319713074467,3.73161574689185]},"properties":{"NAME":"Hamilton","GEO_ID":"0500000US19079","STATE":"19","COUNTY":"079","id":"19079","Population":14773}},{"type":"Feature","geometry":{"type":"Point","coordinates":[3.798093174429474,2.384533787014028]},"properties":{"NAME":"Henry","GEO_ID":"0500000US19087","STATE":"19","COUNTY":"087","id":"19087","Population":19954}},{"type":"Feature","geometry":{"type":"Point","coordinates":[1.7717720608556353,4.11782532739637]},"properties":{"NAME":"Humboldt","GEO_ID":"0500000US19091","STATE":"19","COUNTY":"091","id":"19091","Population":9558}},{"type":"Feature","geometry":{"type":"Point","coordinates":[3.379434123198633,3.0703756050367037]},"properties":{"NAME":"Iowa","GEO_ID":"0500000US19095","STATE":"19","COUNTY":"095","id":"19095","Population":16184}},{"type":"Feature","geometry":{"type":"Point","coordinates":[3.493844843958922,2.4154827411614517]},"properties":{"NAME":"Jefferson","GEO_ID":"0500000US19101","STATE":"19","COUNTY":"101","id":"19101","Population":18295}},{"type":"Feature","geometry":{"type":"Point","coordinates":[4.048368630173004,3.538984731146939]},"properties":{"NAME":"Jones","GEO_ID":"0500000US19105","STATE":"19","COUNTY":"105","id":"19105","Population":20681}},{"type":"Feature","geometry":{"type":"Point","coordinates":[3.7069701776619586,3.480029890393352]},"properties":{"NAME":"Linn","GEO_ID":"0500000US19113","STATE":"19","COUNTY":"113","id":"19113","Population":226706}},{"type":"Feature","geometry":{"type":"Point","coordinates":[2.462729309435488,2.37695073480024]},"properties":{"NAME":"Lucas","GEO_ID":"0500000US19117","STATE":"19","COUNTY":"117","id":"19117","Population":8600}},{"type":"Feature","geometry":{"type":"Point","coordinates":[1.94199625947572,2.667553185969027]},"properties":{"NAME":"Madison","GEO_ID":"0500000US19121","STATE":"19","COUNTY":"121","id":"19121","Population":16338}},{"type":"Feature","geometry":{"type":"Point","coordinates":[2.9655611571676954,2.700738456632292]},"properties":{"NAME":"Mahaska","GEO_ID":"0500000US19123","STATE":"19","COUNTY":"123","id":"19123","Population":22095}},{"type":"Feature","geometry":{"type":"Point","coordinates":[2.7866013232579405,4.72606097440048]},"properties":{"NAME":"Mitchell","GEO_ID":"0500000US19131","STATE":"19","COUNTY":"131","id":"19131","Population":10586}},{"type":"Feature","geometry":{"type":"Point","coordinates":[2.805774757843811,2.3877185431780172]},"properties":{"NAME":"Monroe","GEO_ID":"0500000US19135","STATE":"19","COUNTY":"135","id":"19135","Population":7707}},{"type":"Feature","geometry":{"type":"Point","coordinates":[0.7363289914640532,4.413990728664288]},"properties":{"NAME":"O'Brien","GEO_ID":"0500000US19141","STATE":"19","COUNTY":"141","id":"19141","Population":13753}},{"type":"Feature","geometry":{"type":"Point","coordinates":[1.4238644784295034,4.418481749388851]},"properties":{"NAME":"Palo Alto","GEO_ID":"0500000US19147","STATE":"19","COUNTY":"147","id":"19147","Population":8886}},{"type":"Feature","geometry":{"type":"Point","coordinates":[1.4284512946925365,4.069739666267905]},"properties":{"NAME":"Pocahontas","GEO_ID":"0500000US19151","STATE":"19","COUNTY":"151","id":"19151","Population":6619}},{"type":"Feature","geometry":{"type":"Point","coordinates":[3.0344581155056556,3.0571175961821346]},"properties":{"NAME":"Poweshiek","GEO_ID":"0500000US19157","STATE":"19","COUNTY":"157","id":"19157","Population":18504}},{"type":"Feature","geometry":{"type":"Point","coordinates":[1.7831489419591975,2.0643494698183753]},"properties":{"NAME":"Ringgold","GEO_ID":"0500000US19159","STATE":"19","COUNTY":"159","id":"19159","Population":4894}},{"type":"Feature","geometry":{"type":"Point","coordinates":[0.9751036147783148,3.010539144567286]},"properties":{"NAME":"Shelby","GEO_ID":"0500000US19165","STATE":"19","COUNTY":"165","id":"19165","Population":11454}},{"type":"Feature","geometry":{"type":"Point","coordinates":[2.3330885459453623,3.386757034371194]},"properties":{"NAME":"Story","GEO_ID":"0500000US19169","STATE":"19","COUNTY":"169","id":"19169","Population":97117}},{"type":"Feature","geometry":{"type":"Point","coordinates":[1.7787212815358566,2.3591460073248482]},"properties":{"NAME":"Union","GEO_ID":"0500000US19175","STATE":"19","COUNTY":"175","id":"19175","Population":12241}},{"type":"Feature","geometry":{"type":"Point","coordinates":[3.14932676451879,2.4006297362564624]},"properties":{"NAME":"Wapello","GEO_ID":"0500000US19179","STATE":"19","COUNTY":"179","id":"19179","Population":34969}},{"type":"Feature","geometry":{"type":"Point","coordinates":[3.652867085052033,2.7287394441159525]},"properties":{"NAME":"Washington","GEO_ID":"0500000US19183","STATE":"19","COUNTY":"183","id":"19183","Population":21965}},{"type":"Feature","geometry":{"type":"Point","coordinates":[2.4446753623853095,4.736499824709497]},"properties":{"NAME":"Worth","GEO_ID":"0500000US19195","STATE":"19","COUNTY":"195","id":"19195","Population":7381}},{"type":"Feature","geometry":{"type":"Point","coordinates":[2.117186064919841,4.081550594227606]},"properties":{"NAME":"Wright","GEO_ID":"0500000US19197","STATE":"19","COUNTY":"197","id":"19197","Population":12562}},{"type":"Feature","geometry":{"type":"Point","coordinates":[1.0101366044681388,-0.8212397768329389]},"properties":{"NAME":"Allen","GEO_ID":"0500000US20001","STATE":"20","COUNTY":"001","id":"20001","Population":12369}},{"type":"Feature","geometry":{"type":"Point","coordinates":[0.7953419352304274,1.1364709655850602]},"properties":{"NAME":"Brown","GEO_ID":"0500000US20013","STATE":"20","COUNTY":"013","id":"20013","Population":9564}},{"type":"Feature","geometry":{"type":"Point","coordinates":[0.001937564455381638,-0.4019092147143549]},"properties":{"NAME":"Chase","GEO_ID":"0500000US20017","STATE":"20","COUNTY":"017","id":"20017","Population":2648}},{"type":"Feature","geometry":{"type":"Point","coordinates":[-2.547105650659282,-1.419776378688352]},"properties":{"NAME":"Clark","GEO_ID":"0500000US20025","STATE":"20","COUNTY":"025","id":"20025","Population":1994}},{"type":"Feature","geometry":{"type":"Point","coordinates":[-0.4288021217620916,0.6597156087128271]},"properties":{"NAME":"Clay","GEO_ID":"0500000US20027","STATE":"20","COUNTY":"027","id":"20027","Population":8002}},{"type":"Feature","geometry":{"type":"Point","coordinates":[-0.7971944009244878,0.7973862687107904]},"properties":{"NAME":"Cloud","GEO_ID":"0500000US20029","STATE":"20","COUNTY":"029","id":"20029","Population":8786}},{"type":"Feature","geometry":{"type":"Point","coordinates":[0.6705760154078537,-0.4689062324886063]},"properties":{"NAME":"Coffey","GEO_ID":"0500000US20031","STATE":"20","COUNTY":"031","id":"20031","Population":8179}},{"type":"Feature","geometry":{"type":"Point","coordinates":[-2.116447485901543,-1.4803980464618187]},"properties":{"NAME":"Comanche","GEO_ID":"0500000US20033","STATE":"20","COUNTY":"033","id":"20033","Population":1700}},{"type":"Feature","geometry":{"type":"Point","coordinates":[-0.4250312711342385,0.17159368201571246]},"properties":{"NAME":"Dickinson","GEO_ID":"0500000US20041","STATE":"20","COUNTY":"041","id":"20041","Population":18466}},{"type":"Feature","geometry":{"type":"Point","coordinates":[-2.124099136389032,-0.776478898115048]},"properties":{"NAME":"Edwards","GEO_ID":"0500000US20047","STATE":"20","COUNTY":"047","id":"20047","Population":2798}},{"type":"Feature","geometry":{"type":"Point","coordinates":[0.2722852011385068,-1.259788681508075]},"properties":{"NAME":"Elk","GEO_ID":"0500000US20049","STATE":"20","COUNTY":"049","id":"20049","Population":2530}},{"type":"Feature","geometry":{"type":"Point","coordinates":[-3.2295753586770086,-0.5716296340198759]},"properties":{"NAME":"Finney","GEO_ID":"0500000US20055","STATE":"20","COUNTY":"055","id":"20055","Population":36467}},{"type":"Feature","geometry":{"type":"Point","coordinates":[-2.989573850193209,0.29802367946935365]},"properties":{"NAME":"Gove","GEO_ID":"0500000US20063","STATE":"20","COUNTY":"063","id":"20063","Population":2636}},{"type":"Feature","geometry":{"type":"Point","coordinates":[-3.700814804237651,-1.0339032344106376]},"properties":{"NAME":"Grant","GEO_ID":"0500000US20067","STATE":"20","COUNTY":"067","id":"20067","Population":7150}},{"type":"Feature","geometry":{"type":"Point","coordinates":[0.28220079617262084,-0.8319227756627904]},"properties":{"NAME":"Greenwood","GEO_ID":"0500000US20073","STATE":"20","COUNTY":"073","id":"20073","Population":5982}},{"type":"Feature","geometry":{"type":"Point","coordinates":[-1.1737801319509407,-1.5063663209691494]},"properties":{"NAME":"Harper","GEO_ID":"0500000US20077","STATE":"20","COUNTY":"077","id":"20077","Population":5436}},{"type":"Feature","geometry":{"type":"Point","coordinates":[-2.573538867391065,-0.5570818386498506]},"properties":{"NAME":"Hodgeman","GEO_ID":"0500000US20083","STATE":"20","COUNTY":"083","id":"20083","Population":1794}},{"type":"Feature","geometry":{"type":"Point","coordinates":[-3.685810016953891,-0.5920132064810888]},"properties":{"NAME":"Kearny","GEO_ID":"0500000US20093","STATE":"20","COUNTY":"093","id":"20093","Population":3838}},{"type":"Feature","geometry":{"type":"Point","coordinates":[-1.213257195024181,-1.1343777581817776]},"properties":{"NAME":"Kingman","GEO_ID":"0500000US20095","STATE":"20","COUNTY":"095","id":"20095","Population":7152}},{"type":"Feature","geometry":{"type":"Point","coordinates":[-2.9972040004099525,-0.14110155104610098]},"properties":{"NAME":"Lane","GEO_ID":"0500000US20101","STATE":"20","COUNTY":"101","id":"20101","Population":1535}},{"type":"Feature","geometry":{"type":"Point","coordinates":[-1.2341815142293782,0.3672402449750242]},"properties":{"NAME":"Lincoln","GEO_ID":"0500000US20105","STATE":"20","COUNTY":"105","id":"20105","Population":2962}},{"type":"Feature","geometry":{"type":"Point","coordinates":[-3.5016348903501955,0.32561966914290147]},"properties":{"NAME":"Logan","GEO_ID":"0500000US20109","STATE":"20","COUNTY":"109","id":"20109","Population":2794}},{"type":"Feature","geometry":{"type":"Point","coordinates":[0.06576970001021672,1.0934408884879718]},"properties":{"NAME":"Marshall","GEO_ID":"0500000US20117","STATE":"20","COUNTY":"117","id":"20117","Population":9707}},{"type":"Feature","geometry":{"type":"Point","coordinates":[0.4531925414455518,1.0921111523383844]},"properties":{"NAME":"Nemaha","GEO_ID":"0500000US20131","STATE":"20","COUNTY":"131","id":"20131","Population":10231}},{"type":"Feature","geometry":{"type":"Point","coordinates":[0.6748145602076618,-0.04928919873827683]},"properties":{"NAME":"Osage","GEO_ID":"0500000US20139","STATE":"20","COUNTY":"139","id":"20139","Population":15949}},{"type":"Feature","geometry":{"type":"Point","coordinates":[-1.6836840663895831,-1.032755857943806]},"properties":{"NAME":"Pratt","GEO_ID":"0500000US20151","STATE":"20","COUNTY":"151","id":"20151","Population":9164}},{"type":"Feature","geometry":{"type":"Point","coordinates":[-1.1648812765244974,-0.7376876315448411]},"properties":{"NAME":"Reno","GEO_ID":"0500000US20155","STATE":"20","COUNTY":"155","id":"20155","Population":61998}},{"type":"Feature","geometry":{"type":"Point","coordinates":[-2.082590834495271,0.6996098923898049]},"properties":{"NAME":"Rooks","GEO_ID":"0500000US20163","STATE":"20","COUNTY":"163","id":"20163","Population":4920}},{"type":"Feature","geometry":{"type":"Point","coordinates":[-2.0992333067146034,-0.1356612135920138]},"properties":{"NAME":"Rush","GEO_ID":"0500000US20165","STATE":"20","COUNTY":"165","id":"20165","Population":3036}},{"type":"Feature","geometry":{"type":"Point","coordinates":[-0.8099488160295127,0.0945907734552534]},"properties":{"NAME":"Saline","GEO_ID":"0500000US20169","STATE":"20","COUNTY":"169","id":"20169","Population":54224}},{"type":"Feature","geometry":{"type":"Point","coordinates":[0.6507592859644953,0.34398275688819485]},"properties":{"NAME":"Shawnee","GEO_ID":"0500000US20177","STATE":"20","COUNTY":"177","id":"20177","Population":176875}},{"type":"Feature","geometry":{"type":"Point","coordinates":[-1.6558057419074677,-0.6466350281740926]},"properties":{"NAME":"Stafford","GEO_ID":"0500000US20185","STATE":"20","COUNTY":"185","id":"20185","Population":4156}},{"type":"Feature","geometry":{"type":"Point","coordinates":[-3.7248072736308755,-1.406574626543051]},"properties":{"NAME":"Stevens","GEO_ID":"0500000US20189","STATE":"20","COUNTY":"189","id":"20189","Population":5485}},{"type":"Feature","geometry":{"type":"Point","coordinates":[-3.406915865228236,0.7588577773349109]},"properties":{"NAME":"Thomas","GEO_ID":"0500000US20193","STATE":"20","COUNTY":"193","id":"20193","Population":7777}},{"type":"Feature","geometry":{"type":"Point","coordinates":[-3.975110150597808,0.35222605635485466]},"properties":{"NAME":"Wallace","GEO_ID":"0500000US20199","STATE":"20","COUNTY":"199","id":"20199","Population":1518}},{"type":"Feature","geometry":{"type":"Point","coordinates":[0.6653096086179972,-1.1528604523619677]},"properties":{"NAME":"Wilson","GEO_ID":"0500000US20205","STATE":"20","COUNTY":"205","id":"20205","Population":8525}},{"type":"Feature","geometry":{"type":"Point","coordinates":[8.696294065224684,5.115571572067282]},"properties":{"NAME":"Gratiot","GEO_ID":"0500000US26057","STATE":"26","COUNTY":"057","id":"26057","Population":40711}},{"type":"Feature","geometry":{"type":"Point","coordinates":[8.874045861742513,3.716743892376861]},"properties":{"NAME":"Hillsdale","GEO_ID":"0500000US26059","STATE":"26","COUNTY":"059","id":"26059","Population":45605}},{"type":"Feature","geometry":{"type":"Point","coordinates":[5.476204559723695,8.397579438646963]},"properties":{"NAME":"Houghton","GEO_ID":"0500000US26061","STATE":"26","COUNTY":"061","id":"26061","Population":35684}},{"type":"Feature","geometry":{"type":"Point","coordinates":[8.947930934587216,4.44345811945726]},"properties":{"NAME":"Ingham","GEO_ID":"0500000US26065","STATE":"26","COUNTY":"065","id":"26065","Population":292406}},{"type":"Feature","geometry":{"type":"Point","coordinates":[8.39893928795323,4.729503367370093]},"properties":{"NAME":"Ionia","GEO_ID":"0500000US26067","STATE":"26","COUNTY":"067","id":"26067","Population":64697}},{"type":"Feature","geometry":{"type":"Point","coordinates":[9.253200365854253,6.2554922668983055]},"properties":{"NAME":"Iosco","GEO_ID":"0500000US26069","STATE":"26","COUNTY":"069","id":"26069","Population":25127}},{"type":"Feature","geometry":{"type":"Point","coordinates":[8.48149971603796,5.440345324351856]},"properties":{"NAME":"Isabella","GEO_ID":"0500000US26073","STATE":"26","COUNTY":"073","id":"26073","Population":69872}},{"type":"Feature","geometry":{"type":"Point","coordinates":[8.146357468140412,3.9948002717818936]},"properties":{"NAME":"Kalamazoo","GEO_ID":"0500000US26077","STATE":"26","COUNTY":"077","id":"26077","Population":265066}},{"type":"Feature","geometry":{"type":"Point","coordinates":[5.8295965996990855,8.893282646267613]},"properties":{"NAME":"Keweenaw","GEO_ID":"0500000US26083","STATE":"26","COUNTY":"083","id":"26083","Population":2116}},{"type":"Feature","geometry":{"type":"Point","coordinates":[7.759917621211837,5.711139549921247]},"properties":{"NAME":"Lake","GEO_ID":"0500000US26085","STATE":"26","COUNTY":"085","id":"26085","Population":11853}},{"type":"Feature","geometry":{"type":"Point","coordinates":[9.282426365716647,4.49143429871055]},"properties":{"NAME":"Livingston","GEO_ID":"0500000US26093","STATE":"26","COUNTY":"093","id":"26093","Population":191995}},{"type":"Feature","geometry":{"type":"Point","coordinates":[8.099564266150848,7.781911232442192]},"properties":{"NAME":"Mackinac","GEO_ID":"0500000US26097","STATE":"26","COUNTY":"097","id":"26097","Population":10799}},{"type":"Feature","geometry":{"type":"Point","coordinates":[6.2341111207797395,7.998934805821127]},"properties":{"NAME":"Marquette","GEO_ID":"0500000US26103","STATE":"26","COUNTY":"103","id":"26103","Population":66699}},{"type":"Feature","geometry":{"type":"Point","coordinates":[8.139347491791142,5.4012063487813045]},"properties":{"NAME":"Mecosta","GEO_ID":"0500000US26107","STATE":"26","COUNTY":"107","id":"26107","Population":43453}},{"type":"Feature","geometry":{"type":"Point","coordinates":[6.367436824748715,7.1645325409120275]},"properties":{"NAME":"Menominee","GEO_ID":"0500000US26109","STATE":"26","COUNTY":"109","id":"26109","Population":22780}},{"type":"Feature","geometry":{"type":"Point","coordinates":[8.808801030344645,5.485662756544286]},"properties":{"NAME":"Midland","GEO_ID":"0500000US26111","STATE":"26","COUNTY":"111","id":"26111","Population":83156}},{"type":"Feature","geometry":{"type":"Point","coordinates":[8.300612133176326,5.086940503817863]},"properties":{"NAME":"Montcalm","GEO_ID":"0500000US26117","STATE":"26","COUNTY":"117","id":"26117","Population":63888}},{"type":"Feature","geometry":{"type":"Point","coordinates":[7.807722178422831,5.277665822516421]},"properties":{"NAME":"Newaygo","GEO_ID":"0500000US26123","STATE":"26","COUNTY":"123","id":"26123","Population":48980}},{"type":"Feature","geometry":{"type":"Point","coordinates":[8.909225947043218,6.190408614836999]},"properties":{"NAME":"Ogemaw","GEO_ID":"0500000US26129","STATE":"26","COUNTY":"129","id":"26129","Population":20997}},{"type":"Feature","geometry":{"type":"Point","coordinates":[8.099393838319044,5.74789972256986]},"properties":{"NAME":"Osceola","GEO_ID":"0500000US26133","STATE":"26","COUNTY":"133","id":"26133","Population":23460}},{"type":"Feature","geometry":{"type":"Point","coordinates":[8.864346495355708,6.533367126271994]},"properties":{"NAME":"Oscoda","GEO_ID":"0500000US26135","STATE":"26","COUNTY":"135","id":"26135","Population":8241}},{"type":"Feature","geometry":{"type":"Point","coordinates":[8.493231175243803,6.827918319367458]},"properties":{"NAME":"Otsego","GEO_ID":"0500000US26137","STATE":"26","COUNTY":"137","id":"26137","Population":24668}},{"type":"Feature","geometry":{"type":"Point","coordinates":[8.566250018235857,6.149171621172793]},"properties":{"NAME":"Roscommon","GEO_ID":"0500000US26143","STATE":"26","COUNTY":"143","id":"26143","Population":24019}},{"type":"Feature","geometry":{"type":"Point","coordinates":[9.959426997479666,5.411031689006726]},"properties":{"NAME":"Sanilac","GEO_ID":"0500000US26151","STATE":"26","COUNTY":"151","id":"26151","Population":41170}},{"type":"Feature","geometry":{"type":"Point","coordinates":[9.068004679006899,4.81901567320418]},"properties":{"NAME":"Shiawassee","GEO_ID":"0500000US26155","STATE":"26","COUNTY":"155","id":"26155","Population":68122}},{"type":"Feature","geometry":{"type":"Point","coordinates":[9.380518570393539,4.150261128768249]},"properties":{"NAME":"Washtenaw","GEO_ID":"0500000US26161","STATE":"26","COUNTY":"161","id":"26161","Population":367601}},{"type":"Feature","geometry":{"type":"Point","coordinates":[1.862147191182347,7.036944686728269]},"properties":{"NAME":"Benton","GEO_ID":"0500000US27009","STATE":"27","COUNTY":"009","id":"27009","Population":40889}},{"type":"Feature","geometry":{"type":"Point","coordinates":[2.7540382546364053,7.946486400979685]},"properties":{"NAME":"Carlton","GEO_ID":"0500000US27017","STATE":"27","COUNTY":"017","id":"27017","Population":35871}},{"type":"Feature","geometry":{"type":"Point","coordinates":[0.12700457199115375,8.202914774305503]},"properties":{"NAME":"Clay","GEO_ID":"0500000US27027","STATE":"27","COUNTY":"027","id":"27027","Population":64222}},{"type":"Feature","geometry":{"type":"Point","coordinates":[0.885591851171204,8.87732459018596]},"properties":{"NAME":"Clearwater","GEO_ID":"0500000US27029","STATE":"27","COUNTY":"029","id":"27029","Population":8818}},{"type":"Feature","geometry":{"type":"Point","coordinates":[4.155975910412069,9.299720686690726]},"properties":{"NAME":"Cook","GEO_ID":"0500000US27031","STATE":"27","COUNTY":"031","id":"27031","Population":5463}},{"type":"Feature","geometry":{"type":"Point","coordinates":[2.71140491339446,5.389863225650756]},"properties":{"NAME":"Dodge","GEO_ID":"0500000US27039","STATE":"27","COUNTY":"039","id":"27039","Population":20934}},{"type":"Feature","geometry":{"type":"Point","coordinates":[0.8444197130693408,7.256218137980814]},"properties":{"NAME":"Douglas","GEO_ID":"0500000US27041","STATE":"27","COUNTY":"041","id":"27041","Population":38141}},{"type":"Feature","geometry":{"type":"Point","coordinates":[0.4552791021345559,7.255574587120254]},"properties":{"NAME":"Grant","GEO_ID":"0500000US27051","STATE":"27","COUNTY":"051","id":"27051","Population":5972}},{"type":"Feature","geometry":{"type":"Point","coordinates":[1.204766673009805,8.418977532243439]},"properties":{"NAME":"Hubbard","GEO_ID":"0500000US27057","STATE":"27","COUNTY":"057","id":"27057","Population":21491}},{"type":"Feature","geometry":{"type":"Point","coordinates":[2.3579627366553244,6.912637381644726]},"properties":{"NAME":"Isanti","GEO_ID":"0500000US27059","STATE":"27","COUNTY":"059","id":"27059","Population":40596}},{"type":"Feature","geometry":{"type":"Point","coordinates":[2.348137717408588,7.293143824445912]},"properties":{"NAME":"Kanabec","GEO_ID":"0500000US27065","STATE":"27","COUNTY":"065","id":"27065","Population":16337}},{"type":"Feature","geometry":{"type":"Point","coordinates":[0.3412242971440211,6.3240436371269375]},"properties":{"NAME":"Lac qui Parle","GEO_ID":"0500000US27073","STATE":"27","COUNTY":"073","id":"27073","Population":6623}},{"type":"Feature","geometry":{"type":"Point","coordinates":[2.0813939869251614,5.720631326429161]},"properties":{"NAME":"Le Sueur","GEO_ID":"0500000US27079","STATE":"27","COUNTY":"079","id":"27079","Population":28887}},{"type":"Feature","geometry":{"type":"Point","coordinates":[0.27337307532093513,5.742502888217247]},"properties":{"NAME":"Lincoln","GEO_ID":"0500000US27081","STATE":"27","COUNTY":"081","id":"27081","Population":5639}},{"type":"Feature","geometry":{"type":"Point","coordinates":[0.5783203483451113,5.743480598311686]},"properties":{"NAME":"Lyon","GEO_ID":"0500000US27083","STATE":"27","COUNTY":"083","id":"27083","Population":25474}},{"type":"Feature","geometry":{"type":"Point","coordinates":[1.6868391555043731,6.1635187611634175]},"properties":{"NAME":"McLeod","GEO_ID":"0500000US27085","STATE":"27","COUNTY":"085","id":"27085","Population":35893}},{"type":"Feature","geometry":{"type":"Point","coordinates":[1.5072065982797342,5.013035243095123]},"properties":{"NAME":"Martin","GEO_ID":"0500000US27091","STATE":"27","COUNTY":"091","id":"27091","Population":19683}},{"type":"Feature","geometry":{"type":"Point","coordinates":[0.6658181146717136,7.725303641560962]},"properties":{"NAME":"Otter Tail","GEO_ID":"0500000US27111","STATE":"27","COUNTY":"111","id":"27111","Population":58746}},{"type":"Feature","geometry":{"type":"Point","coordinates":[0.19262971977651325,9.069607997569715]},"properties":{"NAME":"Polk","GEO_ID":"0500000US27119","STATE":"27","COUNTY":"119","id":"27119","Population":31364}},{"type":"Feature","geometry":{"type":"Point","coordinates":[0.8525492812663532,6.911651784078047]},"properties":{"NAME":"Pope","GEO_ID":"0500000US27121","STATE":"27","COUNTY":"121","id":"27121","Population":11249}},{"type":"Feature","geometry":{"type":"Point","coordinates":[0.399101954092834,9.16558541984329]},"properties":{"NAME":"Red Lake","GEO_ID":"0500000US27125","STATE":"27","COUNTY":"125","id":"27125","Population":4055}},{"type":"Feature","geometry":{"type":"Point","coordinates":[2.3910030916421325,5.711771787709128]},"properties":{"NAME":"Rice","GEO_ID":"0500000US27131","STATE":"27","COUNTY":"131","id":"27131","Population":66972}},{"type":"Feature","geometry":{"type":"Point","coordinates":[2.859806113371908,8.940288063744184]},"properties":{"NAME":"St. Louis","GEO_ID":"0500000US27137","STATE":"27","COUNTY":"137","id":"27137","Population":199070}},{"type":"Feature","geometry":{"type":"Point","coordinates":[1.7199139966493806,5.920787220531448]},"properties":{"NAME":"Sibley","GEO_ID":"0500000US27143","STATE":"27","COUNTY":"143","id":"27143","Population":14865}},{"type":"Feature","geometry":{"type":"Point","coordinates":[2.4507951755038846,5.381908166153028]},"properties":{"NAME":"Steele","GEO_ID":"0500000US27147","STATE":"27","COUNTY":"147","id":"27147","Population":36649}},{"type":"Feature","geometry":{"type":"Point","coordinates":[1.2298269936258335,7.3948058225313416]},"properties":{"NAME":"Todd","GEO_ID":"0500000US27153","STATE":"27","COUNTY":"153","id":"27153","Population":24664}},{"type":"Feature","geometry":{"type":"Point","coordinates":[1.1740130182811948,7.903854310327124]},"properties":{"NAME":"Wadena","GEO_ID":"0500000US27159","STATE":"27","COUNTY":"159","id":"27159","Population":13682}},{"type":"Feature","geometry":{"type":"Point","coordinates":[1.457297111881746,5.316301448651073]},"properties":{"NAME":"Watonwan","GEO_ID":"0500000US27165","STATE":"27","COUNTY":"165","id":"27165","Population":10897}},{"type":"Feature","geometry":{"type":"Point","coordinates":[0.139830423258975,7.674341666032107]},"properties":{"NAME":"Wilkin","GEO_ID":"0500000US27167","STATE":"27","COUNTY":"167","id":"27167","Population":6207}},{"type":"Feature","geometry":{"type":"Point","coordinates":[6.493545515661765,-3.6188310062430062]},"properties":{"NAME":"Alcorn","GEO_ID":"0500000US28003","STATE":"28","COUNTY":"003","id":"28003","Population":36953}},{"type":"Feature","geometry":{"type":"Point","coordinates":[5.802751323108928,-5.475833663948519]},"properties":{"NAME":"Attala","GEO_ID":"0500000US28007","STATE":"28","COUNTY":"007","id":"28007","Population":18174}},{"type":"Feature","geometry":{"type":"Point","coordinates":[5.946387759144277,-4.611304185405759]},"properties":{"NAME":"Calhoun","GEO_ID":"0500000US28013","STATE":"28","COUNTY":"013","id":"28013","Population":14361}},{"type":"Feature","geometry":{"type":"Point","coordinates":[6.624662098774603,-6.464640811116267]},"properties":{"NAME":"Clarke","GEO_ID":"0500000US28023","STATE":"28","COUNTY":"023","id":"28023","Population":15541}},{"type":"Feature","geometry":{"type":"Point","coordinates":[5.926080781076568,-6.92331802649507]},"properties":{"NAME":"Covington","GEO_ID":"0500000US28031","STATE":"28","COUNTY":"031","id":"28031","Population":18636}},{"type":"Feature","geometry":{"type":"Point","coordinates":[6.206941700643951,-7.34762019343539]},"properties":{"NAME":"Forrest","GEO_ID":"0500000US28035","STATE":"28","COUNTY":"035","id":"28035","Population":74897}},{"type":"Feature","geometry":{"type":"Point","coordinates":[4.795642646317435,-7.147491947145389]},"properties":{"NAME":"Franklin","GEO_ID":"0500000US28037","STATE":"28","COUNTY":"037","id":"28037","Population":7713}},{"type":"Feature","geometry":{"type":"Point","coordinates":[5.575895331162161,-4.803683102454654]},"properties":{"NAME":"Grenada","GEO_ID":"0500000US28043","STATE":"28","COUNTY":"043","id":"28043","Population":20758}},{"type":"Feature","geometry":{"type":"Point","coordinates":[6.719375273866944,-4.2072480603136535]},"properties":{"NAME":"Itawamba","GEO_ID":"0500000US28057","STATE":"28","COUNTY":"057","id":"28057","Population":23390}},{"type":"Feature","geometry":{"type":"Point","coordinates":[6.264980923908219,-6.513825558002869]},"properties":{"NAME":"Jasper","GEO_ID":"0500000US28061","STATE":"28","COUNTY":"061","id":"28061","Population":16383}},{"type":"Feature","geometry":{"type":"Point","coordinates":[5.701629760974059,-7.001657130411951]},"properties":{"NAME":"Jefferson Davis","GEO_ID":"0500000US28065","STATE":"28","COUNTY":"065","id":"28065","Population":11128}},{"type":"Feature","geometry":{"type":"Point","coordinates":[6.25129506840077,-6.911345346988994]},"properties":{"NAME":"Jones","GEO_ID":"0500000US28067","STATE":"28","COUNTY":"067","id":"28067","Population":68098}},{"type":"Feature","geometry":{"type":"Point","coordinates":[5.992462017388961,-7.345449369347664]},"properties":{"NAME":"Lamar","GEO_ID":"0500000US28073","STATE":"28","COUNTY":"073","id":"28073","Population":63343}},{"type":"Feature","geometry":{"type":"Point","coordinates":[2.6930123361042444,-5.998699494673226]},"properties":{"NAME":"Webster","GEO_ID":"0500000US22119","STATE":"22","COUNTY":"119","id":"22119","Population":38340}},{"type":"Feature","geometry":{"type":"Point","coordinates":[4.494229156477396,-8.171984962431264]},"properties":{"NAME":"West Baton Rouge","GEO_ID":"0500000US22121","STATE":"22","COUNTY":"121","id":"22121","Population":26465}},{"type":"Feature","geometry":{"type":"Point","coordinates":[3.3035549577752827,-6.747135232285038]},"properties":{"NAME":"Winn","GEO_ID":"0500000US22127","STATE":"22","COUNTY":"127","id":"22127","Population":13904}},{"type":"Feature","geometry":{"type":"Point","coordinates":[19.078971790915542,10.635877604743197]},"properties":{"NAME":"Aroostook","GEO_ID":"0500000US23003","STATE":"23","COUNTY":"003","id":"23003","Population":67055}},{"type":"Feature","geometry":{"type":"Point","coordinates":[18.63040403078854,7.62559017270441]},"properties":{"NAME":"Cumberland","GEO_ID":"0500000US23005","STATE":"23","COUNTY":"005","id":"23005","Population":295003}},{"type":"Feature","geometry":{"type":"Point","coordinates":[19.8030032800639,8.7738268235139]},"properties":{"NAME":"Hancock","GEO_ID":"0500000US23009","STATE":"23","COUNTY":"009","id":"23009","Population":54987}},{"type":"Feature","geometry":{"type":"Point","coordinates":[18.978329276511158,7.836963033130855]},"properties":{"NAME":"Sagadahoc","GEO_ID":"0500000US23023","STATE":"23","COUNTY":"023","id":"23023","Population":35856}},{"type":"Feature","geometry":{"type":"Point","coordinates":[20.195790290201934,9.300624055752815]},"properties":{"NAME":"Washington","GEO_ID":"0500000US23029","STATE":"23","COUNTY":"029","id":"23029","Population":31379}},{"type":"Feature","geometry":{"type":"Point","coordinates":[13.593578425001505,2.126348600840856]},"properties":{"NAME":"Allegany","GEO_ID":"0500000US24001","STATE":"24","COUNTY":"001","id":"24001","Population":70416}},{"type":"Feature","geometry":{"type":"Point","coordinates":[15.288304802233572,1.825997260993433]},"properties":{"NAME":"Anne Arundel","GEO_ID":"0500000US24003","STATE":"24","COUNTY":"003","id":"24003","Population":579234}},{"type":"Feature","geometry":{"type":"Point","coordinates":[15.096527874961629,1.2709308395061436]},"properties":{"NAME":"Charles","GEO_ID":"0500000US24017","STATE":"24","COUNTY":"017","id":"24017","Population":163257}},{"type":"Feature","geometry":{"type":"Point","coordinates":[15.836891157386733,1.3758976628008284]},"properties":{"NAME":"Dorchester","GEO_ID":"0500000US24019","STATE":"24","COUNTY":"019","id":"24019","Population":31929}},{"type":"Feature","geometry":{"type":"Point","coordinates":[14.99382143274661,2.016881830938838]},"properties":{"NAME":"Howard","GEO_ID":"0500000US24027","STATE":"24","COUNTY":"027","id":"24027","Population":325690}},{"type":"Feature","geometry":{"type":"Point","coordinates":[15.663397333312798,2.165388710226642]},"properties":{"NAME":"Kent","GEO_ID":"0500000US24029","STATE":"24","COUNTY":"029","id":"24029","Population":19422}},{"type":"Feature","geometry":{"type":"Point","coordinates":[15.716438871546261,1.9807444808360932]},"properties":{"NAME":"Queen Anne's","GEO_ID":"0500000US24035","STATE":"24","COUNTY":"035","id":"24035","Population":50381}},{"type":"Feature","geometry":{"type":"Point","coordinates":[15.431959489358997,1.1291318059961282]},"properties":{"NAME":"St. Mary's","GEO_ID":"0500000US24037","STATE":"24","COUNTY":"037","id":"24037","Population":113510}},{"type":"Feature","geometry":{"type":"Point","coordinates":[15.720042169922644,1.6682203482817746]},"properties":{"NAME":"Talbot","GEO_ID":"0500000US24041","STATE":"24","COUNTY":"041","id":"24041","Population":37181}},{"type":"Feature","geometry":{"type":"Point","coordinates":[14.26060125090721,2.2342475015338183]},"properties":{"NAME":"Washington","GEO_ID":"0500000US24043","STATE":"24","COUNTY":"043","id":"24043","Population":151049}},{"type":"Feature","geometry":{"type":"Point","coordinates":[17.033184378844155,5.686797380450097]},"properties":{"NAME":"Berkshire","GEO_ID":"0500000US25003","STATE":"25","COUNTY":"003","id":"25003","Population":124944}},{"type":"Feature","geometry":{"type":"Point","coordinates":[19.555027818986048,5.217096660057975]},"properties":{"NAME":"Nantucket","GEO_ID":"0500000US25019","STATE":"25","COUNTY":"019","id":"25019","Population":11399}},{"type":"Feature","geometry":{"type":"Point","coordinates":[7.847413664071041,4.31186469188977]},"properties":{"NAME":"Allegan","GEO_ID":"0500000US26005","STATE":"26","COUNTY":"005","id":"26005","Population":118081}},{"type":"Feature","geometry":{"type":"Point","coordinates":[8.11608533370543,6.761534340325986]},"properties":{"NAME":"Antrim","GEO_ID":"0500000US26009","STATE":"26","COUNTY":"009","id":"26009","Population":23324}},{"type":"Feature","geometry":{"type":"Point","coordinates":[8.269030085614645,4.3616993989237525]},"properties":{"NAME":"Barry","GEO_ID":"0500000US26015","STATE":"26","COUNTY":"015","id":"26015","Population":61550}},{"type":"Feature","geometry":{"type":"Point","coordinates":[7.539892033889359,6.338274185265802]},"properties":{"NAME":"Benzie","GEO_ID":"0500000US26019","STATE":"26","COUNTY":"019","id":"26019","Population":17766}},{"type":"Feature","geometry":{"type":"Point","coordinates":[8.530090884671788,4.0392028359308725]},"properties":{"NAME":"Calhoun","GEO_ID":"0500000US26025","STATE":"26","COUNTY":"025","id":"26025","Population":134159}},{"type":"Feature","geometry":{"type":"Point","coordinates":[8.439635083300296,5.784874230776232]},"properties":{"NAME":"Clare","GEO_ID":"0500000US26035","STATE":"26","COUNTY":"035","id":"26035","Population":30950}},{"type":"Feature","geometry":{"type":"Point","coordinates":[8.740749159352317,4.768794003581321]},"properties":{"NAME":"Clinton","GEO_ID":"0500000US26037","STATE":"26","COUNTY":"037","id":"26037","Population":79595}},{"type":"Feature","geometry":{"type":"Point","coordinates":[8.525584609710272,6.493295856079772]},"properties":{"NAME":"Crawford","GEO_ID":"0500000US26039","STATE":"26","COUNTY":"039","id":"26039","Population":14029}},{"type":"Feature","geometry":{"type":"Point","coordinates":[8.611193284706646,4.401970367982153]},"properties":{"NAME":"Eaton","GEO_ID":"0500000US26045","STATE":"26","COUNTY":"045","id":"26045","Population":110268}},{"type":"Feature","geometry":{"type":"Point","coordinates":[9.377226511110798,4.926707412182305]},"properties":{"NAME":"Genesee","GEO_ID":"0500000US26049","STATE":"26","COUNTY":"049","id":"26049","Population":405813}},{"type":"Feature","geometry":{"type":"Point","coordinates":[-9.267184281528381,9.07575951265217]},"properties":{"NAME":"Judith Basin","GEO_ID":"0500000US30045","STATE":"30","COUNTY":"045","id":"30045","Population":2007}},{"type":"Feature","geometry":{"type":"Point","coordinates":[-9.544005352929068,10.618255175348505]},"properties":{"NAME":"Liberty","GEO_ID":"0500000US30051","STATE":"30","COUNTY":"051","id":"30051","Population":2337}},{"type":"Feature","geometry":{"type":"Point","coordinates":[-8.072079936329217,8.363993549471688]},"properties":{"NAME":"Musselshell","GEO_ID":"0500000US30065","STATE":"30","COUNTY":"065","id":"30065","Population":4633}},{"type":"Feature","geometry":{"type":"Point","coordinates":[-6.285401255490921,7.060230452909861]},"properties":{"NAME":"Powder River","GEO_ID":"0500000US30075","STATE":"30","COUNTY":"075","id":"30075","Population":1682}},{"type":"Feature","geometry":{"type":"Point","coordinates":[-5.202671087687319,10.244093194836076]},"properties":{"NAME":"Sheridan","GEO_ID":"0500000US30091","STATE":"30","COUNTY":"091","id":"30091","Population":3309}},{"type":"Feature","geometry":{"type":"Point","coordinates":[-9.971179731644195,10.778957978038589]},"properties":{"NAME":"Toole","GEO_ID":"0500000US30101","STATE":"30","COUNTY":"101","id":"30101","Population":4736}},{"type":"Feature","geometry":{"type":"Point","coordinates":[-1.420752771779928,1.8645646775719806]},"properties":{"NAME":"Adams","GEO_ID":"0500000US31001","STATE":"31","COUNTY":"001","id":"31001","Population":31363}},{"type":"Feature","geometry":{"type":"Point","coordinates":[-3.762683316075413,3.018580559509143]},"properties":{"NAME":"Arthur","GEO_ID":"0500000US31005","STATE":"31","COUNTY":"005","id":"31005","Population":463}},{"type":"Feature","geometry":{"type":"Point","coordinates":[-2.4734531260982084,3.2993090109698997]},"properties":{"NAME":"Blaine","GEO_ID":"0500000US31009","STATE":"31","COUNTY":"009","id":"31009","Population":465}},{"type":"Feature","geometry":{"type":"Point","coordinates":[-2.416810396458429,3.8161160212950156]},"properties":{"NAME":"Brown","GEO_ID":"0500000US31017","STATE":"31","COUNTY":"017","id":"31017","Population":2955}},{"type":"Feature","geometry":{"type":"Point","coordinates":[-3.827225136567875,1.9677655986349243]},"properties":{"NAME":"Chase","GEO_ID":"0500000US31029","STATE":"31","COUNTY":"029","id":"31029","Population":3924}},{"type":"Feature","geometry":{"type":"Point","coordinates":[-1.0818288078228377,1.856358253055078]},"properties":{"NAME":"Clay","GEO_ID":"0500000US31035","STATE":"31","COUNTY":"035","id":"31035","Population":6203}},{"type":"Feature","geometry":{"type":"Point","coordinates":[-0.3427544864335163,2.901470542332939]},"properties":{"NAME":"Colfax","GEO_ID":"0500000US31037","STATE":"31","COUNTY":"037","id":"31037","Population":10709}},{"type":"Feature","geometry":{"type":"Point","coordinates":[-0.11789398649590574,3.2437807356405934]},"properties":{"NAME":"Cuming","GEO_ID":"0500000US31039","STATE":"31","COUNTY":"039","id":"31039","Population":8846}},{"type":"Feature","geometry":{"type":"Point","coordinates":[-2.3996525868981453,2.2456305852666736]},"properties":{"NAME":"Dawson","GEO_ID":"0500000US31047","STATE":"31","COUNTY":"047","id":"31047","Population":23595}},{"type":"Feature","geometry":{"type":"Point","coordinates":[-3.84059448403055,1.6174077354655887]},"properties":{"NAME":"Dundy","GEO_ID":"0500000US31057","STATE":"31","COUNTY":"057","id":"31057","Population":1693}},{"type":"Feature","geometry":{"type":"Point","coordinates":[-2.8456712672988997,1.9219060042520208]},"properties":{"NAME":"Frontier","GEO_ID":"0500000US31063","STATE":"31","COUNTY":"063","id":"31063","Population":2627}},{"type":"Feature","geometry":{"type":"Point","coordinates":[-4.232949874212948,3.0981595084165825]},"properties":{"NAME":"Garden","GEO_ID":"0500000US31069","STATE":"31","COUNTY":"069","id":"31069","Population":1837}},{"type":"Feature","geometry":{"type":"Point","coordinates":[-2.4220757711130823,1.8881006281602069]},"properties":{"NAME":"Gosper","GEO_ID":"0500000US31073","STATE":"31","COUNTY":"073","id":"31073","Population":1990}},{"type":"Feature","geometry":{"type":"Point","coordinates":[-3.3485336738810223,1.9413133230084818]},